rosbagTimestamp,header,seq,stamp,secs,nsecs,frame_id,pose,pose,position,x,y,z,orientation,x,y,z,w,covariance
1553525261892223929,,1,,1553525261,743796000,"""map""",,,,-0.00488028721884,0.269058674574,0.0217245202512,,-0.000628046318665,0.000612016136376,-0.0136951471762,0.999905827678,"[0.6913863370044737, 0.0010224868326793174, -0.0016673009714329018, 0.00040240476582752686, 0.0031319832533684574, 0.006233528328933576, 0.0010224873318160663, 0.5226337054447345, 0.011254699014604087, 0.004250319990276409, 0.00036631848221835344, -0.000991839134480508, -0.0016673008585889014, 0.011254699001353459, 0.21360387083605226, 0.000882230371175739, -0.003822504043921486, 0.0003243326859697264, 0.0004024047711069755, 0.00425031998319981, 0.000882230367897143, 0.0018886863412985262, -2.5384719971457452e-05, 2.311979462734665e-06, 0.0031319832612692233, 0.0003663184842704374, -0.0038225040490328967, -2.5384719424661835e-05, 0.0015489134612593693, -4.882407097799613e-05, 0.006233528310412042, -0.0009918391287177348, 0.0003243326873979459, 2.311980501444558e-06, -4.8824072964550924e-05, 0.0020013974580551466]"
1553525262373223895,,2,,1553525262,248079000,"""map""",,,,0.0194068979472,0.272754281759,0.0210431385785,,-0.000695844268768,0.000351281624203,-0.0139031324821,0.999903048345,"[0.6573763214098091, 0.004289603059360104, -0.00043054049565984274, 0.00029851546381695415, 0.003069824332670528, 0.0065959941988944695, 0.004289602659147938, 0.5100679651948914, 0.012043800217421853, 0.0041878448998429775, 8.258723054608685e-05, 0.0007309595449703184, -0.0004305403984238702, 0.012043800141513206, 0.2155210092048349, 0.0010824252228287938, -0.004231116752541023, 0.0002979192738000803, 0.0002985154740374195, 0.004187844895928492, 0.0010824252188444956, 0.0018111874935357827, -7.812509421661249e-05, -7.401456081795305e-06, 0.0030698243167307355, 8.258723215543443e-05, -0.004231116753506181, -7.812509690637203e-05, 0.00153344583527308, -3.798345450285108e-05, 0.00659599423738314, 0.0007309595764276976, 0.0002979192707318456, -7.401454193597178e-06, -3.798345347474159e-05, 0.002043123032726665]"
1553525263002370332,,3,,1553525262,853191000,"""map""",,,,0.192771881819,0.268055617809,0.0237886700779,,-0.000429267901846,0.000353351600105,-0.0138265132385,0.999904248005,"[0.6770617992868164, 0.011650935466938904, -0.002101957110865863, 0.00021675963444657448, 0.0032493288405866885, 0.006516717595955044, 0.011650935358106839, 0.5142776274069676, 0.009789834861262288, 0.004319224817672222, -4.0078584649091806e-05, 0.00025712119676891536, -0.0021019572008722197, 0.009789834911323415, 0.21346290654247949, 0.0006117021958316068, -0.003997476053584287, 0.00022674569498688693, 0.0002167596424128646, 0.004319224809742584, 0.0006117021884480857, 0.0019272434745149951, -6.615968203887785e-05, -1.2241823104339654e-05, 0.0032493288412941148, -4.007858280889295e-05, -0.00399747604857178, -6.615967987975227e-05, 0.0015784896202243237, -5.6491551610931714e-05, 0.0065167175978098, 0.0002571212227704114, 0.0002267457091573154, -1.2241824932161108e-05, -5.6491552996494176e-05, 0.002053466133219948]"
1553525263586868051,,4,,1553525263,458324000,"""map""",,,,0.438446819782,0.279069036245,0.0237258449197,,0.000182826884519,0.000308246360401,-0.0142547005063,0.99989833166,"[0.6791683560310691, 0.008257933009634743, -0.0023973968294637004, 0.0001658758151780729, 0.0033496794765152252, 0.009361213750918532, 0.008257933472176349, 0.5088984062905472, 0.009812113635871774, 0.004475147281775499, 4.0405032230622126e-05, 1.8404970684522275e-05, -0.002397396965493197, 0.009812113628834359, 0.2134830171333048, 3.325704791310995e-05, -0.0034740571611628595, 0.00030541495067381696, 0.00016587581865494476, 0.004475147286758085, 3.325705004670168e-05, 0.001962860307113828, -8.636145907810358e-05, 2.0393642220532142e-05, 0.003349679477283364, 4.0405034601286304e-05, -0.003474057150623697, -8.636145684559549e-05, 0.0015411882607882731, -4.776102147321236e-05, 0.009361213717878875, 1.8404930418905486e-05, 0.0003054149614955005, 2.0393640947487765e-05, -4.7761023221258343e-05, 0.002211651149837591]"
1553525264101050980,,5,,1553525263,962632000,"""map""",,,,0.727434337139,0.27776914835,0.0303647685796,,5.41610632896e-05,0.000529082326898,-0.0148959384746,0.999888920575,"[0.6861630044618203, 0.014765931399607562, -0.003295301253964317, 6.680844667954397e-05, -0.003279252706697742, 0.008532831210166774, 0.014765931473272549, 0.4879633904365583, 0.006515316194250987, 0.004463280787624761, 9.496426920525524e-05, 0.00016478644858835908, -0.0032953010679397715, 0.0065153162430591355, 0.21213538062564738, -0.00032727435528809095, 0.0039053411034475774, 0.0002346498284366028, 6.680843106665946e-05, 0.0044632807762264685, -0.00032727435310514664, 0.0019123264589525888, 6.443541949189931e-05, 1.6881412498098826e-05, -0.003279252712755086, 9.496427485410986e-05, 0.0039053411061486347, 6.443541675000303e-05, 0.001573469609693779, 4.7537830866735435e-05, 0.008532831257389633, 0.000164786460356474, 0.00023464982878280573, 1.688141208243134e-05, 4.753783060971795e-05, 0.002099764843324109]"
1553525264599177232,,6,,1553525264,466872000,"""map""",,,,1.10153853893,0.261484086514,0.0299925189465,,-0.000272747701297,0.00041449365156,-0.0144098245867,0.999896051547,"[0.655077538117644, 0.005523680924195767, -0.006022473598457406, -0.0002482794330423129, 0.0035560826089246498, 0.0069580312430033014, 0.00552368113727774, 0.48113064371530895, 0.009039621642287133, 0.0037919060133063637, -8.333898183263224e-05, 0.0005069603914133854, -0.006022473636236124, 0.00903962169217028, 0.21586418151136058, 0.0006157634294548022, -0.004297735236746582, 0.0002994459436824073, -0.0002482794450665952, 0.0037919060249882587, 0.000615763432081209, 0.001779935989180252, -7.870847297423327e-05, -5.324954701253963e-06, 0.0035560826111841392, -8.333897928925636e-05, -0.0042977352371062275, -7.870847384446805e-05, 0.0016324532354355954, -3.836641002941106e-05, 0.006958031211238883, 0.0005069604067925176, 0.0002994459555887759, -5.324950734668939e-06, -3.8366411057874355e-05, 0.0020182937870191595]"
1553525265239298051,,7,,1553525265,72055000,"""map""",,,,1.57746875286,0.242723837495,0.0317672081292,,-0.000119028650936,0.00065075866614,-0.0153389170627,0.999882132319,"[0.6654849912135059, 0.003142649339363961, -0.005925567350545401, -0.0004051695183694845, 0.0029916168332288166, 0.006001993677212528, 0.003142649381013974, 0.5007297207869036, 0.009808677909097386, 0.0036979022093469173, -0.00015931446268692892, -0.00039699182144276165, -0.005925567249873833, 0.009808677858395008, 0.21655312811661664, 0.00011006375182526661, -0.0037495248329831067, 0.000291363528839273, -0.0004051695392992565, 0.0036979022128550373, 0.00011006376945919442, 0.0018510862652777423, -0.00010461903861168194, 2.1272950901953884e-05, 0.002991616823939032, -0.00015931445466842322, -0.003749524825904162, -0.00010461903591840563, 0.0015593841265803669, -3.951457005871092e-05, 0.006001993674613984, -0.0003969917863543073, 0.00029136352673868787, 2.1272954345936284e-05, -3.951457028669474e-05, 0.0019145011724770538]"
1553525265794899667,,8,,1553525265,677157000,"""map""",,,,2.1618001461,0.237888619304,0.034970022738,,5.35218637948e-05,0.00105901694436,-0.0154984702607,0.999879323115,"[0.6741889102115066, 0.005402646888118478, -0.0012420634634881338, -0.0003003547045934987, -0.0030451240183587726, 0.00785771724892794, 0.005402646752798761, 0.4929759446793922, 0.010413783812615748, 0.004154259948998825, 3.405702947994099e-05, 0.002146793713716643, -0.0012420635317100296, 0.010413783799093123, 0.2153409144938007, 0.000479541582692826, 0.0031983768804003544, 0.0004719810812553488, -0.00030035471181778816, 0.004154259944712558, 0.0004795415856488454, 0.0020091620521324777, 0.00012354896549535255, 1.1990571023234785e-05, -0.0030451240135087117, 3.405703510068966e-05, 0.003198376875903278, 0.00012354896655650385, 0.0017307612949732482, 6.648809764273197e-05, 0.007857717251524832, 0.0021467937444499255, 0.0004719810913743744, 1.1990573953147623e-05, 6.648809698549544e-05, 0.0021073062783802344]"
1553525266402490018,,9,,1553525266,282313000,"""map""",,,,2.735673666,0.218354016542,0.0433362424374,,0.000473416925419,0.00125051664675,-0.0166306631568,0.999860806016,"[0.7282743013399656, 0.016977863573650664, -0.0014456970156338977, -0.00015890416133375885, -0.0032416405429111115, 0.008945190712009447, 0.016977863674040656, 0.5089339210614876, 0.011765768233800199, 0.004171323080475861, 0.0001024978103138126, 0.0020686065613466087, -0.001445696970463621, 0.01176576823238981, 0.2136536046162179, 0.00048269581409780533, 0.002743838576024353, 0.00027319386733951637, -0.00015890412298148117, 0.0041713230806848765, 0.0004826958142602477, 0.0019088057110445986, 0.00010262198224937483, -1.0087386687610028e-05, -0.003241640548383947, 0.00010249781208062889, 0.00274383857201949, 0.00010262198435806962, 0.0015005256461021357, 2.668236448833716e-05, 0.008945190696959076, 0.0020686066139793025, 0.0002731938701347419, -1.0087389810485753e-05, 2.668236432883369e-05, 0.0022158929939103534]"
1553525267000017684,,10,,1553525266,887413000,"""map""",,,,3.4015109539,0.217576637864,0.0522105544806,,0.0010879590555,0.000983677157253,-0.0174226628294,0.999847132204,"[0.7080225058525832, 0.010250579501507614, -0.004530222450599306, -0.0006313125248429647, -0.003032124021794065, 0.007159925380747312, 0.01025057924260631, 0.5031464732089831, 0.009313420076955839, 0.004327235392171589, 0.00027840703875981794, 0.0019727230148998986, -0.004530222606419635, 0.009313420085412541, 0.21540751091854002, -0.00017981581754469083, 0.0028880650688756257, 0.0003201880994032379, -0.000631312521897515, 0.004327235405564603, -0.0001798158342616678, 0.0018203137202353796, 0.00013270760021148357, 7.0103846544721475e-06, -0.003032124026706842, 0.00027840705330944555, 0.0028880650655487426, 0.00013270760145435914, 0.0015722982965315454, 2.1904656637877026e-05, 0.007159925407684082, 0.001972723003493427, 0.0003201880997628112, 7.010385041965066e-06, 2.1904656326234696e-05, 0.0020966908892866955]"
1553525267501681725,,11,,1553525267,391689000,"""map""",,,,3.91832780838,0.186005473137,0.0474279820919,,0.00118757713006,0.000415780794099,-0.0187965312355,0.999822533775,"[0.7445364184857443, 6.842546840327043e-05, -0.008960325439119189, -0.00042005587276729205, -0.003348906374917705, 0.008922160943415742, 6.842469012300653e-05, 0.513776948140908, 0.007196614345051723, 0.0038186168048879926, 0.0001702021001163742, 0.0004562188839348369, -0.008960325677575695, 0.007196614288746256, 0.22136787364025504, -0.0002717673553023828, 0.003412004106615032, 0.00028371643044288483, -0.000420055878274074, 0.003818616804971912, -0.0002717673672704227, 0.0017787747844212225, 0.00013893381144374772, 4.366910837374399e-05, -0.0033489063892262194, 0.00017020209547205975, 0.0034120041036371294, 0.00013893381394882782, 0.0015682829855734556, 3.4267945332450925e-05, 0.00892216093854163, 0.00045621889319626905, 0.00028371642824582296, 4.366910782535697e-05, 3.4267945739997e-05, 0.002121427813510464]"
1553525268089674511,,12,,1553525267,996828000,"""map""",,,,4.57275724411,0.164345309138,0.0510976612568,,0.00193812917313,-0.000656369598564,-0.0197917130089,0.999802033379,"[0.7493830478439657, 0.012417387694346759, -0.006910761760691241, -0.0007801084029697856, -0.0032925179035367368, 0.009352300187993332, 0.012417387524582834, 0.5216629651599282, 0.00912447910945983, 0.004412644528769003, 0.00022223880826133084, 0.0016299868719061152, -0.00691076176795555, 0.009124479110403275, 0.2156763802967353, -0.00032072011388642636, 0.0035371142357618676, 0.0005040596776314015, -0.0007801083910540774, 0.00441264453832146, -0.0003207201256511951, 0.0017411694035230527, 0.0001301779396664363, 2.9664839472792105e-05, -0.00329251790732398, 0.0002222388200421232, 0.0035371142341576547, 0.00013017794556577036, 0.0015892672685319624, 5.059823332822876e-05, 0.00935230017333963, 0.0016299869127200783, 0.000504059680910728, 2.9664841524530008e-05, 5.0598234559393656e-05, 0.002155732055895837]"
1553525268600483664,,13,,1553525268,501080000,"""map""",,,,5.12488889694,0.153491333127,0.0527067817748,,0.00244141943613,-0.00240537525851,-0.0214605177892,0.999763811054,"[0.7763877051171804, 0.007113331463781111, -0.003747657410953633, -0.0012671997287149646, -0.0033442514344157047, 0.007581620851966849, 0.007113331489768545, 0.5632579573095049, 0.007326599398904318, 0.004678700545810539, 0.00047760673774297684, 0.0023538952312484856, -0.0037476572500073904, 0.007326599371557311, 0.21460609353507046, -0.001107890295950341, 0.0027907761816363614, 0.00035291676225612795, -0.001267199700762005, 0.004678700553203568, -0.0011078902878460825, 0.001938590224869915, 0.0001111311640494212, -3.1181801674357634e-05, -0.0033442514373724433, 0.00047760672398920853, 0.002790776190124852, 0.00011113116250399048, 0.0015498696293527806, 1.5906752804780904e-05, 0.007581620849953842, 0.002353895182745194, 0.00035291676203943534, -3.118180491304916e-05, 1.5906754172903063e-05, 0.002240661537160429]"
1553525269093390040,,14,,1553525268,904541000,"""map""",,,,5.54844236374,0.109322600067,0.0562711879611,,0.0036947466332,-0.00352423337146,-0.0223740845261,0.999736624545,"[0.785688686440033, 0.017707694540519122, -0.0013273712534155253, -0.0006282965884822409, -0.003145511343937077, 0.007734821840178647, 0.01770769492000547, 0.5723244339589323, 0.00804630898000196, 0.004233755216259869, 0.00040251725993563776, 0.0035911491098701708, -0.0013273710766758763, 0.008046308939409082, 0.21608117568382743, -0.001086516081045378, 0.002854556962788027, 0.00028151038481369285, -0.00062829658424435, 0.004233755205456278, -0.0010865160829286488, 0.0017466604358492733, 6.374111648782442e-05, -2.2521411730200274e-05, -0.003145511325314674, 0.0004025172607685387, 0.0028545569685009056, 6.374111747252349e-05, 0.0014346427275529546, 3.510210460977312e-05, 0.007734821889050653, 0.0035911490948144957, 0.00028151037898942964, -2.2521410494997308e-05, 3.510210218731993e-05, 0.0021337065279852844]"
1553525269698769205,,15,,1553525269,509626000,"""map""",,,,6.27028512955,0.111046090722,0.0602231360972,,0.00405302766451,-0.00450434418313,-0.023230303298,0.999711777457,"[0.7525403752796807, 0.020915895881125066, -0.005442581797975095, -0.00045720454209599365, -0.0033516607307096215, 0.007741185751171519, 0.020915895714379403, 0.5664626857844373, 0.004197177888093896, 0.004634880824980847, 0.00029710455275195176, 0.0038036247507349102, -0.005442581768363766, 0.00419717796026746, 0.21483048115617018, -0.0009765705895692623, 0.0025728781336870634, 0.00025761840654759066, -0.0004572045164875469, 0.004634880823272918, -0.0009765705917629361, 0.001850402811328191, 0.00010187672065726769, 2.813505750070939e-05, -0.003351660729438116, 0.0002971045605888081, 0.0025728781323288382, 0.00010187672337064169, 0.0015767936033257851, 4.458219278233065e-05, 0.0077411857162048466, 0.0038036248067697493, 0.00025761840129678236, 2.813505678189412e-05, 4.45821900051901e-05, 0.002083953463667337]"
1553525270287514464,,16,,1553525270,114804000,"""map""",,,,6.98149204254,0.0783705711365,0.0657866448164,,0.00443452775115,-0.00506739919626,-0.0231993745779,0.999708200141,"[0.838647349674845, -0.0020707272657057157, -0.0048069483606672705, -0.0008657068879725376, -0.003324659359604246, 0.010455523506388625, -0.0020707270344159727, 0.594805681183262, 0.0066663732784756615, 0.004474837196274445, 0.0003810804059674135, 0.0016865957522368882, -0.004806948326162844, 0.006666373183546614, 0.21050065438439472, -0.0008696234772207034, 0.003388940867164101, 0.00035810629241097924, -0.0008657068731241844, 0.00447483720365271, -0.0008696234615258515, 0.0017522952021623945, 0.0001237925469597251, -6.494475600867704e-06, -0.003324659356303713, 0.0003810803901943198, 0.0033889408691045522, 0.00012379254468976203, 0.0015904653015494316, 4.126255790921022e-05, 0.010455523501705295, 0.0016865957359308461, 0.00035810628753674644, -6.494476254633192e-06, 4.1262557132344435e-05, 0.0023615202751583924]"
1553525270791562781,,17,,1553525270,619066000,"""map""",,,,7.57363414764,0.0318162515759,0.0815828442574,,0.00437794094047,-0.00392205632805,-0.0229934528615,0.999718335837,"[0.8138758915903588, 0.00776020765465961, -0.00754523534728615, -0.0006588637800782189, -0.0034716909218306218, 0.008623903747064442, 0.0077602077244828494, 0.5760448591584547, 0.008231601654518911, 0.003974597106182471, 0.0003805025494959916, 0.0014820019293814166, -0.00754523549409076, 0.008231601567403359, 0.21617987196629587, -8.181056864327925e-08, 0.0038899226231197508, 0.00027812643098664954, -0.0006588637983376288, 0.003974597106015917, -8.178695380246012e-08, 0.0016423350174173167, 8.432500570892986e-05, 1.1431354085818508e-05, -0.0034716909166519756, 0.00038050254128194967, 0.0038899226282219095, 8.432500468040049e-05, 0.0015542374141489024, 4.5591351609121455e-05, 0.008623903693177719, 0.0014820019503057457, 0.00027812644314256915, 1.143135420409276e-05, 4.559135240569304e-05, 0.00220826779378359]"
1553525271296973327,,18,,1553525271,123335000,"""map""",,,,8.17963314056,-0.00765547621995,0.100977987051,,0.00341366806681,-0.00200318762379,-0.0232651243497,0.999721503221,"[0.8429363248347683, 0.001308378621812612, -0.006852086943042353, -0.0010452571383554052, -0.0038488807179265267, 0.008932690157710244, 0.001308378256888826, 0.5743002588060698, 0.005302692182497831, 0.0043216325940683125, 0.000307434868912766, 0.001752272467831662, -0.0068520867466268275, 0.005302692155233952, 0.21366365174589075, -0.0015122526171893625, 0.003182602870582417, 0.0003284969670104659, -0.0010452571610894033, 0.004321632583514348, -0.001512252604118938, 0.0017923868812115358, 0.00013087036468322272, 1.2858568281280817e-05, -0.0038488807182457635, 0.0003074348604675973, 0.003182602880003707, 0.00013087036211659772, 0.001503686337330252, 7.519068311483528e-06, 0.008932690193234113, 0.0017522724318435464, 0.00032849696214355597, 1.2858567081322631e-05, 7.5190676429438216e-06, 0.0021889973955370556]"
1553525271915421327,,19,,1553525271,728479000,"""map""",,,,8.91096401215,-0.0308102741838,0.111469373107,,0.00311856372998,-0.000745297067979,-0.0233642108149,0.999721875853,"[0.8712944842168132, 0.0059680972692526995, -0.002231784794454606, -0.0009502041260667908, -0.0032688442109173182, 0.008278524766572887, 0.005968097721123031, 0.5752363717964082, 0.00602984841905481, 0.00403797692753056, 0.00033021104288597804, 0.0032004741017391757, -0.0022317848011604922, 0.006029848432154309, 0.21502089641113445, -0.001058197303680536, 0.003194872771240871, 0.0004335873616812343, -0.0009502041128873595, 0.00403797690103756, -0.001058197302030649, 0.0017812019076851938, 0.0001576251101828657, -2.4057609278699017e-06, -0.003268844201387555, 0.00033021104248255216, 0.003194872771401181, 0.0001576251103308084, 0.0015373002399268647, 4.5210135032278805e-05, 0.008278524804802885, 0.003200474080132282, 0.00043358736782491954, -2.4057622714529017e-06, 4.5210134565094e-05, 0.0020673737894290143]"
1553525272494150163,,20,,1553525272,333604000,"""map""",,,,9.63269138336,-0.0616399049759,0.122070357203,,0.00320999919349,-8.57546173917e-05,-0.0238231569196,0.999711024731,"[0.8589413356583196, 0.008277942335697725, -0.001485541983584653, -0.0005593304741600513, -0.0028328732927913646, 0.00888070402730932, 0.008277942349305905, 0.5927557993629504, 0.00513701691906839, 0.004510976836635476, 0.0003910593589687253, 0.0026092819427622634, -0.0014855421194411248, 0.00513701691254807, 0.20993205375634683, -0.001528153732490983, 0.0030650901903680325, 0.00027028006587318, -0.0005593304829370106, 0.004510976837951364, -0.0015281537280264026, 0.0017823626457201364, 0.00013105770275157887, -8.562446078363288e-07, -0.0028328732996092333, 0.00039105935166989, 0.003065090191763925, 0.00013105770269420422, 0.0014384711194257303, 3.5087138465671916e-05, 0.008880704080903556, 0.002609281986824974, 0.00027028007240676724, -8.56244092442949e-07, 3.508713782001154e-05, 0.002161829733311871]"
1553525272993346646,,21,,1553525272,837894000,"""map""",,,,10.2500982285,-0.0875500366092,0.128334969282,,0.00218499795996,0.000288225000928,-0.0243893408912,0.999700113869,"[0.8900911891426282, 0.015174218049615017, -0.0022606307832327963, -0.0005307068432772648, -0.0034902150942186304, 0.007954543585235566, 0.01517421827667274, 0.6189334784654968, 0.007617400431862403, 0.0037458364255530665, 8.84321014743781e-05, 0.0017824400503655934, -0.002260630964231243, 0.0076174003726282675, 0.2107794358439815, -0.001075126577944806, 0.0035780263067941736, 0.00040569370200700954, -0.0005307068439069572, 0.0037458364358944002, -0.0010751265844249215, 0.0016866393473432253, 0.00011918184889915271, 1.5053219203074035e-05, -0.003490215118129407, 8.843210182553045e-05, 0.0035780263082661745, 0.00011918184975776303, 0.0015288707155797457, 4.781826367727569e-05, 0.007954543597817096, 0.0017824400657353865, 0.0004056937136547411, 1.5053219170039567e-05, 4.781826509253461e-05, 0.002017098695380855]"
1553525273601540560,,22,,1553525273,443047000,"""map""",,,,11.0072841644,-0.125497281551,0.132291197777,,0.00146251880373,-0.00122805545064,-0.0252603606344,0.999679066896,"[0.8858959030211118, 0.004337546376737998, -0.003431141393272346, -0.0005534022197309653, -0.003601630306083228, 0.009575729565878276, 0.004337546576778929, 0.6290167079550404, 0.008229484915066554, 0.0037616325848353034, 0.00017461687587110478, 0.0016346150116313349, -0.0034311413317114742, 0.00822948488712321, 0.2165361627369855, -0.0014675868486067555, 0.0037994862832714882, 0.00036610304890188303, -0.0005534022185928711, 0.003761632584251384, -0.0014675868517966427, 0.0017380596125206602, 0.00016321796132499184, 1.5626016818724675e-05, -0.0036016303085859673, 0.0001746168771009815, 0.003799486283401481, 0.00016321796242446665, 0.0015969253542255748, 2.541635134482618e-05, 0.009575729558151284, 0.0016346149819373445, 0.00036610304167021616, 1.5626016046270465e-05, 2.5416349974174788e-05, 0.0021728643604396894]"
1553525274093916648,,23,,1553525273,947346000,"""map""",,,,11.6455936432,-0.143186628819,0.135024145246,,0.000635030802178,-0.00291610449437,-0.0268838270281,0.999634124461,"[0.982057630596083, 0.0047813069238756434, -0.0017530790838206787, -0.0006735293307242492, -0.003797169921963265, 0.011682474029551268, 0.004781307091006193, 0.6574072865918005, 0.0052546367943207065, 0.004048809171292597, 0.00019609389104537618, 0.0011634939597069136, -0.0017530790774917548, 0.005254636684518711, 0.21327809584603274, -0.0019535417211785137, 0.0032747094151412293, 0.0003944084538505823, -0.0006735293580873784, 0.00404880916605016, -0.001953541715782747, 0.001647133754022598, 0.00010345618477971192, 4.6744466031168224e-05, -0.0037971699330966234, 0.0001960938921374302, 0.0032747094176028466, 0.00010345618434581786, 0.0015172205446201564, 3.527739253566986e-05, 0.011682474035873889, 0.0011634939557496637, 0.0003944084585176544, 4.674446760451235e-05, 3.527739367035946e-05, 0.002253848853339114]"
1553525274609278753,,24,,1553525274,451571000,"""map""",,,,12.2905273438,-0.179496318102,0.138515725732,,-0.000493373567002,-0.00326601997729,-0.0268026144267,0.999635287177,"[0.949913575070526, 0.0022529450186090905, -0.003295815217152279, -0.00038771988283821076, 0.003435995411751832, 0.010119726353865311, 0.0022529454572633675, 0.6653134076144667, 0.007476719833124969, 0.003898823773586843, 0.000249452352501223, 0.00038247355054025367, -0.0032958151921459963, 0.0074767197647355255, 0.21591785746730544, -0.0018970330308839861, -0.0037496081939017104, 0.0004356592986062391, -0.0003877198713572457, 0.0038988237543486266, -0.0018970330186875984, 0.0016680572762404749, -4.762225797943261e-05, 4.593146325051236e-05, 0.003435995431118463, 0.0002494523528960717, -0.0037496081933066153, -4.762225865485653e-05, 0.001531859379550566, -1.1532504967098083e-05, 0.010119726320301769, 0.00038247354627716, 0.0004356593122159769, 4.593146181830775e-05, -1.1532505974275523e-05, 0.002172317171065104]"
1553525275102117986,,25,,1553525274,955879000,"""map""",,,,12.9598493576,-0.204797789454,0.146586477757,,-0.00106485542061,-0.00309502079694,-0.0275868742374,0.999614037596,"[0.9443977503386033, 0.005112783869935433, -0.0060099577233313686, -0.0006997846650202151, 0.004089755917800841, 0.01122321457858143, 0.005112784005496424, 0.6871258374448835, 0.010351997968261578, 0.004772845234060508, -5.966229618564504e-05, 0.0017527432905922397, -0.006009957740694879, 0.010351997917135099, 0.2182428918142019, -0.0024511762714633984, -0.0035089100508606317, 0.00038910444875341543, -0.0006997846854781346, 0.00477284523333409, -0.002451176265546591, 0.0017578513725606526, -7.897643067625262e-05, 3.679117687817209e-05, 0.004089755917558948, -5.9662283915582836e-05, -0.003508910054879782, -7.897643041021308e-05, 0.0014676540965197114, 1.289053444559886e-05, 0.011223214588127504, 0.0017527432780029164, 0.0003891044434790248, 3.679117756859171e-05, 1.2890535377739768e-05, 0.002171721113244985]"
1553525275691992046,,26,,1553525275,561009000,"""map""",,,,13.7550582886,-0.253619253635,0.156623914838,,-0.000849775171091,-0.00159463029264,-0.0275006761088,0.999620127052,"[1.0059894040442632, 0.023730226328172725, -0.0029492529620990054, -0.00030881719282644987, 0.003742187936387053, 0.011551146022716365, 0.023730225978329796, 0.6874039156795866, 0.0052859341551706905, 0.00485838802771612, 4.480650186774588e-06, 0.0024800661739385016, -0.002949253178033515, 0.00528593413381324, 0.22324114822513774, -0.003339424966175927, -0.0038270370690037347, 0.00031246644708580654, -0.0003088172079578135, 0.004858388023484596, -0.0033394249694365576, 0.001848978924381639, 2.208720264328963e-05, -5.0021463467614734e-06, 0.0037421879525730934, 4.4806440069626035e-06, -0.0038270370710505545, 2.208720005534091e-05, 0.0016000440617157064, -6.007909673790693e-06, 0.011551145946241067, 0.0024800662637462895, 0.00031246645168506626, -5.0021441157521e-06, -6.007911041113698e-06, 0.0023483555059641186]"
1553525276218211068,,27,,1553525276,65247000,"""map""",,,,14.3690824509,-0.299975246191,0.175335034728,,-0.000629289752021,-0.000243738972568,-0.0283098979123,0.999598966591,"[1.0450732696656464, 0.02268395828346102, -0.007439546705298998, 6.72751018872022e-05, 0.004631091302159038, 0.012419678976392186, 0.02268395836687784, 0.7090289233616214, 0.004864358469074488, 0.004600828455888496, 0.00011178518317697317, 0.0016974001148975478, -0.007439546637737387, 0.0048643582902572315, 0.22789161244059422, -0.0037465867648009687, -0.004377618656425339, 0.00019741303907555018, 6.727510856007287e-05, 0.004600828471205977, -0.0037465867562045054, 0.0017579598993661258, 8.934550600994427e-06, 3.465020736335894e-05, 0.004631091326186929, 0.00011178520684973594, -0.004377618648054826, 8.934550674442445e-06, 0.0016988892671335205, -1.2476425931566606e-08, 0.012419678909727118, 0.0016974001690303493, 0.00019741305071627232, 3.4650205010497573e-05, -1.2480189786282643e-08, 0.002387725357793251]"
1553525276788477460,,28,,1553525276,670391000,"""map""",,,,15.2133264542,-0.328400909901,0.185628995299,,-0.000263556558496,0.000903921167564,-0.0285311762953,0.99959245215,"[1.047104820058249, 0.008179123192883588, -0.0035206005960874294, -0.0007380702403855423, 0.0042083747018604655, 0.01279786847579913, 0.008179123017191871, 0.6928738989508506, 0.0021995933655916166, 0.004920314552489978, 0.00018792650752642962, 0.0022566020457014772, -0.003520600663008252, 0.0021995933177774095, 0.21626992345191995, -0.003395400085321503, -0.0036780000135188556, 0.0005040449602849525, -0.0007380702315543532, 0.004920314551016742, -0.0033954000946149533, 0.0018479735339357812, -1.6379799252858267e-05, 1.9223867080936702e-05, 0.004208374705482134, 0.00018792651584146662, -0.0036780000112798354, -1.6379800929909008e-05, 0.001528291144414945, -1.6873985073237064e-05, 0.01279786851004867, 0.0022566021031962015, 0.0005040449599611042, 1.9223870592920707e-05, -1.6873987477852813e-05, 0.002509150480734379]"
1553525277403517446,,29,,1553525277,275535000,"""map""",,,,16.070066452,-0.374453276396,0.196037217975,,-6.64514064087e-06,0.00149013832416,-0.0287264302471,0.999586198545,"[1.04658700686666, 0.017112210998987996, -0.004457308276151231, -0.0006048011700245046, 0.004221564018985703, 0.012894678348269639, 0.017112211245531854, 0.7011362789101375, 0.002912371928449352, 0.00449571063071367, 4.6797356866094204e-05, 0.0024896586891344093, -0.004457308225415428, 0.0029123719963908886, 0.22213838950803205, -0.004150785428726423, -0.002766435872365721, 0.00033420603682610795, -0.0006048011770717417, 0.004495710630556483, -0.004150785437109512, 0.0018483190764600188, -5.2102091373487495e-05, 1.0413339232116635e-05, 0.004221564006886544, 4.679735017412386e-05, -0.0027664358667128922, -5.210209106874103e-05, 0.0015783350751852046, -7.946148051469064e-06, 0.012894678312142832, 0.0024896586365490284, 0.000334206036837465, 1.0413340242569021e-05, -7.94614838386808e-06, 0.0024386838628401575]"
1553525277926953281,,30,,1553525277,779811000,"""map""",,,,16.7652873993,-0.41772916913,0.200859889388,,0.000867300033196,0.00152880900916,-0.0276623783556,0.999615766796,"[1.117176141265973, 0.02048029177276455, -0.0009713273288165161, -0.00022213422895330667, -0.004463272784362938, 0.013981463153394751, 0.02048029243599384, 0.6987612450979888, 0.0004765508213515503, 0.0049589292848879595, -0.0005294735060451665, 0.0028352658266535854, -0.0009713273456076961, 0.00047655066447507247, 0.2423637678347204, -0.0054289360940054454, 0.003131872411579601, 0.0004568558431098228, -0.00022213423428539704, 0.00495892929858622, -0.005428936100045746, 0.0019128283428921692, -2.9758503444369225e-06, 1.604198045330403e-05, -0.004463272796141219, -0.0005294735085883772, 0.003131872406997114, -2.9758485517353068e-06, 0.0016167345194012708, 1.2988043277628062e-05, 0.013981463176559546, 0.0028352658245886946, 0.00045685585071662853, 1.6041980423748783e-05, 1.298804575623321e-05, 0.0021881567172894463]"
1553525278400449024,,31,,1553525278,284096000,"""map""",,,,17.4986877441,-0.462058991194,0.199918583035,,0.00117597787943,0.000939022613275,-0.0280724620561,0.999604757998,"[1.0931162887955543, 0.009839187564813983, -0.004650431153495496, -5.954166912330731e-05, -0.004337527495395248, 0.012592751594544196, 0.009839187219254497, 0.7150046731541376, 0.0006001251378001442, 0.004594627738977305, -1.87929091422734e-05, 0.0013270922683760605, -0.004650430938562345, 0.0006001249698646951, 0.23810644160170813, -0.004741798298705103, 0.0023330251908691268, 0.00012477076989492384, -5.954169679521325e-05, 0.0045946277546052, -0.004741798299926384, 0.0018964343048992129, 1.663743763687414e-05, -1.0834018840375254e-05, -0.004337527483330163, -1.879293293704554e-05, 0.00233302519160786, 1.6637436772316455e-05, 0.0016199539550210624, 8.000943876233343e-06, 0.012592751555602279, 0.0013270922905356667, 0.0001247707566552508, -1.0834015877265133e-05, 8.000942041535014e-06, 0.0022559154682191894]"
1553525279013977350,,32,,1553525278,889261000,"""map""",,,,18.3541355133,-0.515575945377,0.20928825438,,0.000873592826255,0.000973963980461,-0.0280981126853,0.99960431824,"[1.1791792954418554, 0.009049574613790681, 0.006731384006419873, -0.0006061949497499906, -0.004091146379035658, 0.013455768850978706, 0.009049575626212142, 0.7590385507945526, -0.0051510534365982906, 0.005990342666490437, -0.0004337402760238558, 0.0029878198768206383, 0.006731384109299863, -0.0051510537773884054, 0.23315218943997415, -0.004406494167343905, 0.0020823166415626284, 0.0005111267909008038, -0.0006061949437563414, 0.005990342698153082, -0.004406494151346384, 0.0018822816327933173, -2.3918060532313805e-05, -4.441438463596375e-05, -0.004091146384848028, -0.0004337402894826472, 0.0020823166438370803, -2.391806079978201e-05, 0.0015881276300734142, 2.1739847923573514e-05, 0.013455768895487384, 0.002987819839792454, 0.0005111267893153906, -4.4414384465758504e-05, 2.1739847776448933e-05, 0.002243989528106411]"
1553525279586223798,,33,,1553525279,494415000,"""map""",,,,19.2263355255,-0.540323317051,0.213187679648,,0.00149458301323,0.000691132336138,-0.0271783037161,0.999629249986,"[1.181979426236712, 0.04808375794787816, 0.01211794519656165, -0.00045171074511357937, -0.0043324792670209064, 0.01630090706698146, 0.04808375720366396, 0.7357237142666776, -0.0007570747439388357, 0.005311805609174894, -0.00065180676778707, 0.004536462486339231, 0.012117944979795445, -0.0007570747176864327, 0.23733165846383167, -0.00578409869178878, 0.0015153294434375089, 0.0007097014389155282, -0.0004517107320045331, 0.005311805621211531, -0.0057840986984961885, 0.001926168163968161, 1.6829454638324188e-05, -1.4244883949517947e-05, -0.004332479277521542, -0.0006518067594843505, 0.0015153294312904217, 1.6829460741272054e-05, 0.0016841341357829074, 4.2329200970018344e-05, 0.016300907029890357, 0.0045364625275719035, 0.0007097014344257744, -1.4244882042636124e-05, 4.232919979511873e-05, 0.0023586804119549577]"
1553525280180250195,,34,,1553525280,99498000,"""map""",,,,20.0770339966,-0.578696429729,0.227534249425,,0.00215790861231,0.00109244258369,-0.0264650839244,0.99964680991,"[1.2159516676938944, 0.04805087109074973, 0.018929014074476117, -0.001105173650472156, -0.0046992825622714975, 0.016574335201837237, 0.04805087119840969, 0.7432739679907217, 0.0004637393483135561, 0.0050425213580412446, -0.0004570446677798995, 0.005058326801766783, 0.01892901408550112, 0.00046373927100618544, 0.24110976321355815, -0.006362494330228502, 0.0005848900611995925, 0.0008972196788900752, -0.0011051736386177128, 0.005042521388009598, -0.006362494337579784, 0.0019732429466841196, 0.0001289130228584424, -5.381965305614672e-05, -0.004699282566717503, -0.0004570446734970003, 0.0005848900730869442, 0.00012891302123867857, 0.0017478172787388452, 4.412998403480374e-05, 0.016574335220070822, 0.005058326757408791, 0.0008972196763221802, -5.381965525027766e-05, 4.4129983950826236e-05, 0.0024135190915996253]"
1553525280792182352,,35,,1553525280,603789000,"""map""",,,,20.7608108521,-0.615054190159,0.232161581516,,0.00165913032633,0.000839347156806,-0.0265137680867,0.999646713019,"[1.1850433222614292, 0.03453717698099293, 0.012601477469643524, -0.0007471411498933626, -0.003995734900735893, 0.013001644214388215, 0.03453717681513089, 0.770304691883306, 0.00110632669032715, 0.005296258665407836, -0.00045245339133426075, 0.004301092833148532, 0.01260147731450875, 0.0011063267405358075, 0.23869648053614853, -0.005558324034799035, 0.0005469002279353988, 0.000618452811679765, -0.0007471410937905984, 0.005296258661643732, -0.005558324028780913, 0.0020854953889898847, -6.938859221006886e-05, -7.701557253073691e-05, -0.0039957349019884665, -0.000452453382049653, 0.0005469002346495635, -6.93885926315754e-05, 0.001714759323368773, 3.341300682561733e-05, 0.013001644126261487, 0.004301092817290666, 0.0006184528096224968, -7.701557483342588e-05, 3.341300456490991e-05, 0.002458642526521241]"
1553525281403992183,,36,,1553525281,208900000,"""map""",,,,21.6778354645,-0.658102333546,0.242477178574,,0.000994829776874,0.000331434919719,-0.0257061381369,0.999668982973,"[1.160964377673833, 0.06479402011345399, 0.010407247656175669, -0.000511866929919421, -0.0036382146933047832, 0.014448893034868305, 0.06479401963042451, 0.7821301645276384, -0.0014512572918370323, 0.004844691201524448, -0.0006333544932927657, 0.007095462751070569, 0.010407247710813531, -0.0014512571715493477, 0.2243443422106087, -0.004630260931470254, 0.000651753260543239, 0.0006522805884318243, -0.000511866969521507, 0.004844691193856315, -0.004630260936565829, 0.0019741155455461007, -0.0001416184353296371, -3.680656640552359e-05, -0.0036382147177153514, -0.0006333545080955817, 0.0006517532802971717, -0.00014161843980143148, 0.0015864620494474508, 9.987290764893253e-05, 0.01444889303523788, 0.007095462756633759, 0.0006522805908701578, -3.680656759584707e-05, 9.98729112738988e-05, 0.0023835086471494502]"
1553525281900855454,,37,,1553525281,713196000,"""map""",,,,22.4425182343,-0.681746244431,0.251650333405,,0.00137391384917,2.60881792764e-06,-0.0252004849993,0.999681481656,"[1.1332009653329393, 0.05237676821562809, 0.016832503350485657, -0.00031994982925473783, -0.003962804917630067, 0.013016567193288737, 0.05237676769559508, 0.7583213624772421, 0.002183554947378975, 0.005343172438031973, -0.00038192543104163904, 0.007224371164416412, 0.016832503393991095, 0.002183554915734957, 0.21948242197448703, -0.004324634936414225, 0.00046204007784474594, 0.000516954194337958, -0.0003199498476334462, 0.005343172435471315, -0.00432463494093253, 0.0018652325098919371, -0.00010359500642440498, -3.151670580648774e-05, -0.003962804943646649, -0.0003819254227583881, 0.0004620400741693154, -0.00010359500457763536, 0.0016180506698527028, 4.2390038017353336e-05, 0.013016567297823696, 0.00722437117985723, 0.0005169541797466467, -3.151670127815255e-05, 4.239003771950396e-05, 0.002299696658649049]"
1553525282502403400,,38,,1553525282,318329000,"""map""",,,,23.3549575806,-0.728058695793,0.259620517492,,0.00254135829003,-0.000850968125172,-0.0249045094014,0.99968623663,"[1.1702532147879514, 0.03703740856073977, 0.010981321357645919, -0.00023890772434509203, -0.004244134756426315, 0.013291761528036534, 0.037037408598996235, 0.7831769866114758, 0.002592073965444765, 0.004758020361011278, -0.00040532663882642043, 0.005484119570614896, 0.01098132125091117, 0.002592073916809937, 0.2230227429990754, -0.004124113677203785, 0.0021325349381831724, 0.0006092674992022849, -0.00023890766850191784, 0.0047580203929516295, -0.0041241136752409825, 0.0018447772629306117, -0.00013912355197850034, -6.415204319852639e-05, -0.004244134775123606, -0.0004053266417984824, 0.0021325349290191287, -0.000139123551135755, 0.0017382531255026837, 7.914094200400257e-05, 0.013291761476895668, 0.005484119569060271, 0.0006092675078604739, -6.415204905130348e-05, 7.914094393620901e-05, 0.0024518506690288]"
1553525282995160937,,39,,1553525282,822564000,"""map""",,,,24.1119823456,-0.750288963318,0.268634915352,,0.00157499723134,-0.000561405653239,-0.0242108447446,0.999705472429,"[1.1154274766843377, 0.026629130886096496, 0.010143057635875728, -0.00022106898169261814, -0.004380595937096903, 0.012527779949503425, 0.026629129262403538, 0.7542560204059079, 0.0016564290598343983, 0.005762428644529488, -9.036005168353078e-05, 0.004248562004380673, 0.01014305746270976, 0.0016564289249719737, 0.21965409107900508, -0.00402230104739407, 0.0016247578959995462, 0.0003302469687334222, -0.00022106898773417922, 0.005762428663159333, -0.004022301032444615, 0.0017542512589441624, -8.960818389387292e-05, -4.7810941598490914e-05, -0.004380595928648657, -9.036006452479575e-05, 0.0016247578999973446, -8.960818878057754e-05, 0.0016415626884911877, 2.086885707183293e-05, 0.012527779943802355, 0.0042485620468630724, 0.0003302469785538025, -4.781094084981561e-05, 2.0868860667951107e-05, 0.0023335604012316834]"
1553525283494301265,,40,,1553525283,326879000,"""map""",,,,24.8705177307,-0.802756369114,0.27572670579,,0.00134251306425,0.000280392309828,-0.0235805865669,0.999721003892,"[1.2181914047249933, 0.025404465308045063, 0.008552111926762035, 0.0005165186710636905, -0.004094715375205016, 0.012542922744817766, 0.025404465509499628, 0.8020345854751416, 0.00354459143554247, 0.00582957928069642, -0.0006317519491872341, 0.004362514249920602, 0.00855211223236138, 0.003544591423589995, 0.22011821338962423, -0.004163143089265693, 0.0017536890073439535, 0.0002859298213569982, 0.0005165186107115085, 0.005829579303936991, -0.004163143108103216, 0.0018854736401310948, -0.00016457973553001568, -4.2374451845848184e-05, -0.004094715368232879, -0.000631751949213603, 0.0017536890052336311, -0.0001645797338801173, 0.0016436836215707729, 9.374488612939433e-06, 0.012542922666626875, 0.004362514217190458, 0.0002859298193465865, -4.237444929036054e-05, 9.374489797509497e-06, 0.0024318010689095455]"
1553525284088621369,,41,,1553525283,932014000,"""map""",,,,25.7496509552,-0.806124687195,0.285686165094,,0.000659373956952,0.00022941124084,-0.0229087815231,0.999737302727,"[1.1984483412961833, 0.008209552687048705, 0.014868788910470105, 0.0006991533806722223, -0.004331066127876798, 0.013045452926298278, 0.00820955238002435, 0.7949227853581231, 0.00461151677289104, 0.005615827179728985, -0.0011695983139467859, 0.0051688160493711475, 0.014868788960429249, 0.004611516694057785, 0.22253525993707735, -0.0036016888872189737, 0.002073626001319021, 0.0005219980009090106, 0.0006991533523382896, 0.005615827184254021, -0.003601688888153317, 0.0017108455308340398, -0.00019875300892529198, 5.18834171421737e-07, -0.0043310661316701225, -0.0011695983268798572, 0.0020736260074254924, -0.00019875300784867364, 0.0016795648398221308, 3.913154998171042e-05, 0.013045452941652644, 0.005168815954978625, 0.0005219979979375691, 5.188343656094817e-07, 3.9131550873926426e-05, 0.0023333264692122937]"
1553525284602320382,,42,,1553525284,436291000,"""map""",,,,26.485502243,-0.85221517086,0.290926367044,,0.00229794191017,-0.00115184602896,-0.0222517194517,0.999749092573,"[1.1961745522771916, 0.01847232928431098, 0.012327167792972079, 0.00047341519363416944, -0.003982498624904077, 0.013003089633117923, 0.01847233039998042, 0.7587829191706768, 0.005280367161963777, 0.00530452288117927, -0.0005081453396478502, 0.004474046865517477, 0.012327167845840516, 0.005280367279807286, 0.21387881776962722, -0.0031931964049131123, 0.0016205491734635827, 0.0003285820362221748, 0.00047341519242292745, 0.005304522855669919, -0.003193196410945004, 0.0016515170766437214, -0.00011320592500211651, -4.306563345534183e-05, -0.0039824986599539345, -0.0005081453385166261, 0.0016205491753816146, -0.00011320592344661212, 0.0016746001236261653, 2.8264822357085368e-05, 0.01300308956598289, 0.0044740468888288904, 0.00032858204373479986, -4.306563274923833e-05, 2.826482510430089e-05, 0.0023483246693190153]"
1553525285191073160,,43,,1553525285,41454000,"""map""",,,,27.3051795959,-0.878431558609,0.299110203981,,0.00260295290554,-0.00107500285189,-0.0226979252719,0.999738398249,"[1.126455163192753, 0.012007169066782923, 0.010497345398962367, -0.00016571152991822914, -0.003645580744939093, 0.012026535712673609, 0.012007168850589169, 0.7974698914876138, 0.002172415521851192, 0.0058401935797880835, -0.0006328080096177702, 0.004058549749915894, 0.010497345427541216, 0.0021724155867767153, 0.22148162426727724, -0.004309897238494453, 0.0011228873621959917, 0.0004911377917658473, -0.0001657115361714999, 0.005840193595779438, -0.0043098972452418425, 0.0017847899020174058, -8.6928541441603e-05, -3.3409187031811545e-05, -0.0036455807635725553, -0.0006328080222185069, 0.0011228873597702216, -8.692854269436906e-05, 0.0015220826284801415, 2.65646449629498e-05, 0.012026535752134597, 0.004058549824128226, 0.0004911377875885007, -3.34091866948757e-05, 2.6564645522788216e-05, 0.0022383704556721666]"
1553525285757230570,,44,,1553525285,646560000,"""map""",,,,28.1393127441,-0.904271602631,0.308411091566,,0.0012621875054,-0.000815742567544,-0.0235045626814,0.99972259876,"[1.257200587200151, 0.015028621186405109, 0.018243732737528336, 9.395940350247904e-05, -0.003790123513869176, 0.012420524329503335, 0.015028622118649975, 0.8491191468334106, -0.0014536628220334351, 0.006278267968981913, -0.0014714006038402197, 0.004351806962371427, 0.018243732925734016, -0.00145366297640909, 0.22476988490731584, -0.004010872777859817, 0.0010908212303882355, 0.0007343069345348563, 9.395939539044826e-05, 0.006278267977390567, -0.004010872787721081, 0.0020836045442988505, -0.0002830549238263007, -7.271217427469781e-05, -0.0037901235294024406, -0.0014714006144539312, 0.001090821235386807, -0.0002830549228116812, 0.001609440766151172, 8.762887870326367e-05, 0.012420524379735245, 0.00435180693939894, 0.0007343069407515452, -7.271217669085e-05, 8.762888083521467e-05, 0.0024904434568609295]"
1553525286343446274,,45,,1553525286,150824000,"""map""",,,,28.8825473785,-0.939200222492,0.319746792316,,0.00202947864062,-0.000418635543323,-0.0233041599309,0.999726280362,"[1.1739015100202834, 0.03265197777730506, 0.011910928452303656, 0.00044372836831762673, -0.0037584619902265126, 0.01266494139424457, 0.032651977331991135, 0.7740491594067795, -0.0019609120286156086, 0.006188451231658466, -0.0011018921158729928, 0.003342437189652352, 0.011910928336507799, -0.0019609120987291225, 0.2319773171573466, -0.004988735767732387, 0.0021863834915344118, 0.00043338236845700607, 0.00044372838208785246, 0.006188451245789446, -0.004988735767192834, 0.0019629321184242, -0.00022167035329569075, -3.748442775310082e-06, -0.003758461985594017, -0.0011018921070367425, 0.002186383494686135, -0.00022167035454089573, 0.0015855910708155762, 2.423070719256559e-05, 0.012664941281091599, 0.0033424372407144342, 0.0004333823676915314, -3.7484435100214927e-06, 2.4230706455210988e-05, 0.0021948411554527356]"
1553525286911897583,,46,,1553525286,755962000,"""map""",,,,29.7380180359,-0.980293095112,0.327424585819,,0.00202050963034,-0.000387906870501,-0.0235704684313,0.999720064857,"[1.2262947489046527, -0.01958705637837077, 0.01164149582924603, 0.00014027340084561568, -0.004068149522632874, 0.014226340279601861, -0.019587056664682127, 0.7779603424296537, -0.00031946448292933903, 0.006386903491288796, -0.0010309515052484926, 0.0001231503598728289, 0.01164149577348879, -0.00031946442303343493, 0.23633799713035245, -0.005257936115052069, 0.001919820172103276, 0.00041620418562471215, 0.00014027341422006946, 0.006386903494806966, -0.005257936115672635, 0.0019411980634472987, -0.0002508526460011064, -4.6954505038390345e-05, -0.004068149521006941, -0.001030951517297968, 0.0019198201803358203, -0.00025085265150635313, 0.0016517419194084471, 2.2262131326603998e-05, 0.014226340242409914, 0.00012315026166481228, 0.0004162041891778737, -4.695450622721781e-05, 2.2262131186786238e-05, 0.00235817368601034]"
1553525287469921441,,47,,1553525287,361113000,"""map""",,,,30.5947437286,-1.02769041061,0.338448315859,,0.00295132390715,-0.000500413078324,-0.0243351135334,0.99969937604,"[1.2503419717158881, -0.014059891565810634, 0.016911207791641795, -0.00021634369157906826, -0.004513819936483914, 0.01308005184106461, -0.014059889972009697, 0.7782795738377845, 0.0011973126545525709, 0.006849494027153421, -0.0014935050044208482, 0.0006420843072138723, 0.01691120769692379, 0.00119731259889716, 0.2345998828230453, -0.004604659185940465, 0.0014836833439440778, 0.0006688359700645714, -0.0002163436590877571, 0.006849494039176796, -0.004604659181297455, 0.0018510215930680597, -0.0002284862050747848, -4.240845245035708e-05, -0.0045138199405729725, -0.0014935049785795998, 0.0014836833424014104, -0.0002284862025722193, 0.0016641928293816453, 1.6582106045241254e-05, 0.013080051814306123, 0.0006420842647912354, 0.0006688359705953256, -4.240845308096774e-05, 1.6582104936570743e-05, 0.0022596821825167897]"
1553525287997731926,,48,,1553525287,865384000,"""map""",,,,31.3797893524,-1.03162109852,0.34354069829,,0.00339826082659,-0.00168472933474,-0.0234207092872,0.999718499796,"[1.2377682728799977, -0.005329131973174492, 0.007349119193335643, 0.0009671586493991734, -0.004846373939354072, 0.012299756523350984, -0.0053291321521817675, 0.8082387148939204, -0.0015305064781353113, 0.006812137569721906, -0.0010907606190923486, 0.0031390641779764565, 0.00734911945928433, -0.00153050665731331, 0.24015325414769742, -0.004798961820993597, 0.00223833597762505, 0.0002611612508032837, 0.0009671586686136258, 0.006812137590350284, -0.004798961815731691, 0.0018485263169159896, -0.00028062176319108644, -5.841811727584413e-07, -0.004846373907163204, -0.001090760619249035, 0.0022383359750475537, -0.00028062176298821134, 0.0017217503779651097, 5.571359581059608e-05, 0.0122997565761171, 0.00313906419659812, 0.0002611612512454389, -5.841843547089512e-07, 5.5713594314899716e-05, 0.002312040541194676]"
1553525288557684075,,49,,1553525288,369646000,"""map""",,,,32.0355415344,-1.08067929745,0.356348574162,,0.00277661027046,-0.00203450980311,-0.0240753405827,0.999704220362,"[1.3086214016217341, -0.007009389989781133, 0.011271422917877711, 0.0007723908135999452, -0.00436057875436224, 0.011256118691347863, -0.007009391115816659, 0.7828860430151281, 0.0037858563007437383, 0.007271442909793483, -0.0011569716647538838, 0.0010307626609752378, 0.011271422962915433, 0.003785856270424589, 0.24964914564386353, -0.004816816110026129, 0.0024792240362530556, 0.00039224102845786024, 0.0007723907964038161, 0.0072714429132290734, -0.00481681611360186, 0.001941696649029953, -0.0002759954618445727, -0.00010463872764213815, -0.004360578743915921, -0.0011569716968755034, 0.002479224031987131, -0.00027599546268892636, 0.001816647433499822, 3.624344672214303e-05, 0.01125611872265627, 0.0010307627218492728, 0.00039224101746490006, -0.00010463872894812038, 3.624344265811397e-05, 0.002364414265334263]"
1553525289115518607,,50,,1553525288,974785000,"""map""",,,,32.9157485962,-1.09956145287,0.358746051788,,0.00263000816457,-0.00252331946249,-0.0241318521431,0.999702141032,"[1.2710662855195027, -0.031149770964160915, 0.017059642400993048, 0.0005858092367724306, -0.00429823673897833, 0.011117101735815831, -0.031149770776196458, 0.8423781889363772, 0.005722177932470017, 0.006958392029846076, -0.0012897651164787553, 0.0004627835725184894, 0.017059642254001996, 0.0057221780734511354, 0.24770498708850502, -0.004484500545448911, 0.0023458204456233422, 0.00042708399147029375, 0.0005858092748170665, 0.006958392025943713, -0.004484500555310655, 0.0020581551260130163, -0.0003135487098794241, -7.854878263649273e-05, -0.004298236755850265, -0.0012897650869438998, 0.0023458204351409764, -0.0003135487085766494, 0.0018117865743353017, 2.7370545118136544e-05, 0.011117101723982519, 0.0004627835783113884, 0.0004270839789624592, -7.854878031119277e-05, 2.7370544295976607e-05, 0.0024881142406132342]"
1553525289755717781,,51,,1553525289,579908000,"""map""",,,,33.743850708,-1.14940524101,0.370837777853,,0.00274589576666,-0.0021596461227,-0.0243926596121,0.999696357642,"[1.476688501576392, 0.012525080193804447, 0.01667948213177898, 0.001584389127547966, -0.0046189771998507104, 0.015466069166093055, 0.012525079820329564, 0.8505393845506907, 0.0033869507455781484, 0.007303667457568267, -0.0016005083772245101, 0.002361596369368933, 0.016679482088245417, 0.0033869506837802136, 0.2519621844708793, -0.003982671857418183, 0.0019683713090903002, 0.00039962598289087516, 0.001584389153791991, 0.007303667463650688, -0.003982671849479879, 0.001972138115148838, -0.0003013669613126315, -3.8429748416806265e-05, -0.004618977209309483, -0.0016005083561554069, 0.0019683713023938747, -0.0003013669598974389, 0.0017744312007284466, 5.4467722744106945e-05, 0.015466069033487915, 0.0023615964041814393, 0.00039962599322244425, -3.8429748834841873e-05, 5.446772468901398e-05, 0.0025101817785244443]"
1553525290182007612,,52,,1553525290,84200000,"""map""",,,,34.4359931946,-1.17192399502,0.390014141798,,0.00266112553489,-0.0020967138365,-0.0246961117729,0.999689255057,"[1.4337142632676458, -0.013816248139147324, 0.022882251442283903, 0.0005750825780017284, -0.004499610138930679, 0.013318072686764715, -0.01381624896185972, 0.8225985892967291, 0.004032333512303177, 0.007330348095447562, -0.001033889002074527, -0.00021876845866619372, 0.02288225176759381, 0.004032333486320219, 0.25803073944688953, -0.0037385586023084318, 0.0008115426894691268, 0.00037751377244077974, 0.0005750826005720268, 0.00733034810457203, -0.0037385585819800023, 0.0018947927288450372, -0.0001537428293724492, -4.760114597874455e-05, -0.004499610103982162, -0.0010338889850413282, 0.0008115426771568951, -0.00015374282455096666, 0.0017746968023092569, 5.350951996888631e-05, 0.013318072706037895, -0.00021876845065796496, 0.0003775137694296974, -4.76011475624738e-05, 5.350951823294248e-05, 0.0024991458024193436]"
1553525290786918353,,53,,1553525290,689349000,"""map""",,,,35.265789032,-1.19699597359,0.392730653286,,0.00218035020509,-0.00283090901132,-0.0241798543328,0.99970123179,"[1.3996895919408334, -0.020415612818986503, 0.015951411907618035, 0.0006503767307011998, -0.004282681866225106, 0.011312444427276167, -0.02041561123747983, 0.8431646777865529, 0.007735621949855197, 0.0074963855509974165, -0.0013839948916493279, 0.0011730337877229001, 0.015951412061720155, 0.0077356218536024255, 0.2595651215769585, -0.003647855061091911, 0.000509828396501246, 0.00045358155690247487, 0.0006503767607663004, 0.007496385544099888, -0.003647855059698719, 0.0020413049627983934, -0.00018935422545469875, -9.980254920206472e-05, -0.004282681861110644, -0.0013839948875298848, 0.0005098283881662825, -0.00018935422591559545, 0.0019226060987148075, 4.8057150667645505e-05, 0.011312444303502126, 0.0011730337837299958, 0.0004535815376677995, -9.980254844836453e-05, 4.805714590630444e-05, 0.002476420500239468]"
1553525291405773008,,54,,1553525291,294438000,"""map""",,,,36.1068458557,-1.22475886345,0.407218039036,,0.00223003573908,-0.00225941954109,-0.0243213500673,0.999699145002,"[1.4679177938998718, -0.03869113086772745, 0.021783840119567233, 0.00028131073653586095, -0.004236957961038269, 0.012375353381336584, -0.038691129318206494, 0.8553951319150829, 0.0048746342119020515, 0.007789201319767982, -0.0014765066554768452, 0.003180119670233967, 0.02178384008855467, 0.0048746342170309515, 0.2531282490765816, -0.003089655077134559, 0.0009427918055439705, 0.0005765430639418635, 0.0002813107304899152, 0.007789201312293846, -0.0030896550869654684, 0.002187447703244937, -0.00026886999540269736, -6.839820132348846e-05, -0.00423695793387245, -0.0014765066744041174, 0.0009427918105480111, -0.00026886999700951334, 0.0018606594404761612, 6.35378983686693e-05, 0.01237535342438738, 0.003180119515388311, 0.0005765430670244753, -6.839820317657934e-05, 6.353790077889262e-05, 0.002491153688424668]"
1553525292036266276,,55,,1553525291,899586000,"""map""",,,,37.0298843384,-1.29292416573,0.414138019085,,0.00177809281202,-0.00327352921494,-0.0237552956401,0.999710845865,"[1.5358738906481406, -0.04161557996526713, 0.014893031891708937, 2.915370561518483e-06, -0.004377401474774592, 0.012986270193617458, -0.041615580357915474, 0.8805418408309731, 0.014860614140209633, 0.008143857026355134, -0.002078219958040352, 0.001958083469321227, 0.014893031829773504, 0.014860614295491962, 0.25640493079969745, -0.002874241643523341, 0.0011097546008667527, 0.0006947675217520445, 2.9153647717756013e-06, 0.008143857000866816, -0.0028742416339891576, 0.002350793403432003, -0.00039871132238487503, -8.844191603188372e-05, -0.004377401497587368, -0.002078219940384318, 0.001109754593629626, -0.00039871131903191655, 0.0018806903021088793, 2.1355209314097465e-05, 0.012986270283387403, 0.001958083451686514, 0.0006947675185169131, -8.844191729362607e-05, 2.135520848831101e-05, 0.0025837149506766706]"
1553525292735522560,,56,,1553525292,403861000,"""map""",,,,37.5013198853,-1.29614710808,0.420171946287,,0.000591130948967,-0.00283458319178,-0.024906406115,0.999685603131,"[1.4269903504345323, -0.029506583605649343, 0.013727321752247699, 0.0007153313915152296, -0.004211976105615752, 0.012152457514588315, -0.029506582902420125, 0.9012735696486714, 0.010090632814040896, 0.008661357689924777, -0.0019238835584619645, 0.0004823896095897187, 0.013727321799331667, 0.01009063282691685, 0.26126095395786936, -0.003173589641111275, 0.0015029828981631339, 0.0004239202538795038, 0.0007153313895941787, 0.008661357684321979, -0.003173589640443833, 0.0024646616675931487, -0.0004201130698239443, -3.3910780557725164e-05, -0.00421197607636532, -0.0019238835594649595, 0.001502982888874111, -0.0004201130717723129, 0.0019166172089643844, 3.9469205385150264e-05, 0.012152457394608795, 0.0004823897146273989, 0.0004239202652701114, -3.3910783447506657e-05, 3.946920271198882e-05, 0.002665060422282595]"
1553525293184450420,,57,,1553525292,908140000,"""map""",,,,38.3010025024,-1.33437252045,0.426538527012,,0.00235768427955,-0.00485329773193,-0.0234323142254,0.999710860771,"[1.455218160108253, -0.034622436268923196, 0.017271671607372044, 0.00041962176313451946, -0.004272103233061884, 0.01251514075252398, -0.03462243696205518, 0.8403743322377136, 2.884675362491911e-05, 0.008129070316384041, -0.0018998409965508224, 0.0009220681158377338, 0.01727167153497254, 2.8846677776558742e-05, 0.27450462053828967, -0.004595202931994398, 0.0030807633389618, 0.0005888972655836866, 0.0004196217213223266, 0.00812907031616642, -0.004595202923972166, 0.0022639059537307394, -0.0005032741540634094, -7.34910201964671e-05, -0.004272103210224467, -0.001899841017088177, 0.0030807633364419774, -0.0005032741589233927, 0.0018878490360853724, 7.513216891431033e-05, 0.012515140750925427, 0.0009220681492300145, 0.0005888972690024985, -7.349101895672407e-05, 7.513216752945306e-05, 0.002407214884972696]"
1553525293749190475,,58,,1553525293,513278000,"""map""",,,,39.0655784607,-1.33664250374,0.437255471945,,0.00276550701815,-0.0048953390573,-0.0228374994454,0.999723373835,"[1.6672568343426621, -0.06907409128896637, 0.019360734289268017, 0.00050622246943776, -0.004062666247546727, 0.0162848041873591, -0.06907409203734759, 0.8736576073222444, 0.0016155583525022585, 0.00818288669321767, -0.0022655004562885947, -0.0030589884628593246, 0.019360734154388923, 0.0016155582749168354, 0.2945622140634237, -0.005262609918553317, 0.0036652925197259946, 0.0009680050382165212, 0.0005062224787951589, 0.008182886684404901, -0.005262609894506929, 0.002140357253285581, -0.0002935445054136129, -5.7301233210907826e-05, -0.004062666243092339, -0.0022655004740578595, 0.003665292532544888, -0.00029354450849839716, 0.001885558575701324, 9.720499667977528e-05, 0.01628480408266138, -0.0030589884950709884, 0.0009680050303626197, -5.730123452676772e-05, 9.720499652876848e-05, 0.0027239258942345916]"
1553525294353258076,,59,,1553525294,17525000,"""map""",,,,39.9751625061,-1.3828548193,0.459143519402,,0.00267911116413,-0.00487963532872,-0.0214659556711,0.999754070797,"[1.7244951373710327, -0.08182458560489235, 0.03506349482713671, -0.00013568981735837197, -0.004532877171232474, 0.016295133435862294, -0.0818245848728882, 0.8782049333266407, 0.003485808467507375, 0.00878518004902822, -0.001231748608329496, 0.0005997191023863232, 0.035063494426360746, 0.0034858085210277244, 0.30632673505381836, -0.005920572080873307, 0.0008600424357288961, 0.0008284892700176286, -0.0001356898037921283, 0.008785180055880195, -0.005920572078642379, 0.0023381157756725314, -0.00016104021475591375, -7.206869508577666e-05, -0.004532877190764318, -0.0012317486151540594, 0.0008600424523088949, -0.00016104021679590695, 0.0018431088121948719, 6.731604306749243e-05, 0.01629513352645996, 0.0005997190850852246, 0.0008284892823636763, -7.206869417672065e-05, 6.731604194468574e-05, 0.002713113191839519]"
1553525294767023581,,60,,1553525294,622683000,"""map""",,,,40.8028945923,-1.41113841534,0.472697794437,,0.00164657141506,-0.00409344462188,-0.0202316352946,0.999785579105,"[1.6341886696145083, -0.021373186960403457, 0.026736046980266236, 0.00033103853869478206, -0.0038664206958013694, 0.014440992085594635, -0.021373188636698046, 0.8810809495626463, 0.007691454929248627, 0.008262219987214128, -0.001660442459270313, 0.0029036946299955037, 0.026736047103507805, 0.007691455397581396, 0.30197378820422394, -0.006309676565515755, 0.00027984234688006247, 0.0008120729078513583, 0.0003310385189938692, 0.00826221995723064, -0.006309676586656802, 0.0026100630054017833, -0.0003177235801356296, -0.000105667723571314, -0.0038664206659751042, -0.0016604424476113421, 0.0002798423716553826, -0.000317723579991667, 0.0019458518172540456, 6.995206829558506e-05, 0.014440992210785542, 0.0029036946540101525, 0.0008120729342576383, -0.00010566772600522411, 6.995206635991733e-05, 0.0028913632665862397]"
