rosbagTimestamp,header,seq,stamp,secs,nsecs,frame_id,pose,position,x,y,z,orientation,x,y,z,w
1540963646621249549,,0,,1540963646,178006683,'',,,0.0,0.0,0.0,,0.0,0.0,0.0,1.0
1540963646621249549,,1,,1540963646,530255718,'',,,0.00598003296182,-0.00114704610314,-0.0199137032032,,-0.000800254875795,-0.000639898473229,0.000248416958668,0.999999448657
1540963647454006538,,2,,1540963647,131253724,'',,,0.00812177173793,-0.00212921155617,-0.0079801119864,,-6.74943424339e-05,-0.000887538442508,0.000745550128874,0.999999321997
1540963647936728944,,3,,1540963647,676055591,'',,,0.0149845527485,-0.00135117419995,-0.0143654653803,,-4.65617855275e-05,-0.000827970840208,0.000281566896371,0.999999597669
1540963648382013617,,4,,1540963648,181366259,'',,,0.0153586408123,0.00036617348087,-0.0162713620812,,-0.000210826927262,-0.00137681648716,0.000598794711023,0.99999885261
1540963648914911085,,5,,1540963648,726057763,'',,,0.102294705808,-0.0159520357847,-0.0198557730764,,-0.000186911780592,-0.00240288887673,0.00046186058566,0.99999698251
1540963649506466717,,6,,1540963649,222665979,'',,,0.330441623926,-0.020383676514,-0.0271355155855,,-0.000205961351485,-0.00350682062203,-0.00101547437098,0.999993301906
1540963649982569097,,7,,1540963649,768175947,'',,,0.75438451767,-0.0287040285766,-0.0313672162592,,-0.000766020467729,-0.00342063146255,-0.00640551527511,0.999973334017
1540963650485882866,,8,,1540963650,272227436,'',,,1.28331053257,-0.0504252277315,-0.0466136336327,,0.000168903104205,-0.0037618257812,-0.0137766693412,0.999898018703
1540963651204088152,,9,,1540963650,817270729,'',,,2.04076814651,-0.103629432619,-0.0560166761279,,0.000161876285321,-0.00448806798738,-0.0224832111373,0.999737123866
1540963651635980918,,10,,1540963651,362090760,'',,,2.88676023483,-0.170448675752,-0.0632706657052,,0.00034495674079,-0.00104863054774,-0.0311803820861,0.999513157413
1540963652099166469,,11,,1540963651,867955589,'',,,3.69414329529,-0.252513110638,-0.0734180063009,,0.00197098554362,0.00275726614859,-0.0383964436691,0.999256826455
1540963652634548025,,12,,1540963652,412937373,'',,,4.63880252838,-0.356879740953,-0.0907288938761,,0.00318094367141,0.00631212580731,-0.0425785114002,0.999068109105
1540963653250510308,,13,,1540963652,958450008,'',,,5.62358903885,-0.469345599413,-0.114504940808,,0.00308354678356,0.00688434849324,-0.0437207673833,0.999015300938
1540963653701491365,,14,,1540963653,469079965,'',,,6.55737876892,-0.573041319847,-0.156074300408,,0.00405076427187,0.00504399593047,-0.0394016815363,0.999202514588
1540963654307867300,,15,,1540963654,15846809,'',,,7.5979385376,-0.680048823357,-0.188118025661,,0.00631153330059,0.00320163290136,-0.0294786897232,0.99954035
1540963654754650009,,16,,1540963654,560720331,'',,,8.69643211365,-0.751950740814,-0.214464426041,,0.00593575277851,0.00247614696986,-0.0107300040434,0.99992174349
1540963655337559229,,17,,1540963655,105231669,'',,,9.84383010864,-0.783925533295,-0.241225197911,,0.0227371240449,0.0157543065154,0.0169619374289,0.999473410777
1540963655943842904,,18,,1540963655,657213883,'',,,11.1038551331,-0.742118000984,-0.290937542915,,0.0198921405346,0.0365151881061,0.0475498643555,0.998002986354
1540963656395270469,,19,,1540963656,162296883,'',,,12.4191761017,-0.626392364502,-0.343969494104,,0.021420856857,0.0426041261493,0.0906483508464,0.994740632963
1540963656964439957,,20,,1540963656,706983554,'',,,13.8688459396,-0.30851829052,-0.493415445089,,0.0215720573244,0.00775890451271,0.152203529791,0.988083265474
1540963657518127174,,21,,1540963657,252299886,'',,,15.2661542892,0.191386088729,-0.603218436241,,0.00264761438714,-0.0147827238936,0.227064788721,0.973763850203
1540963658176746943,,22,,1540963657,748542083,'',,,16.4152145386,0.85132920742,-0.595970869064,,0.00268225371362,-0.0150790780431,0.307850944655,0.951311316638
1540963658499504134,,23,,1540963658,293894540,'',,,17.4816265106,1.71905612946,-0.585544645786,,0.00146889213333,-0.0137209271686,0.390821688661,0.920362953979
1540963659212348640,,24,,1540963658,854140349,'',,,18.3838996887,2.73614692688,-0.574671208858,,0.00319944563486,-0.0140811447554,0.463087295137,0.886195049156
1540963659535351505,,25,,1540963659,342996518,'',,,19.0852832794,3.79915952682,-0.573600292206,,0.0024373449062,-0.0141664156253,0.517481950674,0.855573373432
1540963660105721532,,26,,1540963659,849035724,'',,,19.7011737823,4.9942240715,-0.573784589767,,0.00200314905942,-0.0137776459192,0.552632358085,0.833308837451
1540963660549321035,,27,,1540963660,395161823,'',,,20.3375110626,6.46242141724,-0.548826813698,,0.00165708408822,-0.0147653899096,0.574682080716,0.81824184384
1540963661127065093,,28,,1540963660,890752660,'',,,20.8747768402,7.88889837265,-0.54862433672,,0.00137595872813,-0.0148955334854,0.58256944147,0.812643254012
1540963661704031560,,29,,1540963661,450148343,'',,,21.4913959503,9.54005527496,-0.538812875748,,0.000431163991293,-0.0164965292024,0.586439729227,0.809824743657
1540963662166879202,,30,,1540963661,939189406,'',,,22.0568256378,11.1457700729,-0.529515743256,,-0.00223669577144,-0.0178384846753,0.587834647248,0.80878129802
1540963662662315315,,31,,1540963662,444097573,'',,,22.6624145508,12.8328285217,-0.51512336731,,-0.00447672965473,-0.018362225955,0.586836494248,0.809484847726
1540963663206420362,,32,,1540963662,892961866,'',,,23.2500209808,14.481962204,-0.517458260059,,-0.00505379852544,-0.0216932357792,0.586697173735,0.809500020545
1540963663508422801,,33,,1540963663,341731845,'',,,23.8423404694,16.195810318,-0.502815902233,,-0.00746742174304,-0.0240210369956,0.587331676659,0.808955328257
1540963663943938459,,34,,1540963663,734190540,'',,,24.4257240295,17.7737350464,-0.484100908041,,-0.00710485945081,-0.0243434876538,0.58701926653,0.809175668937
1540963664426516845,,35,,1540963664,142542874,'',,,25.0245513916,19.4205188751,-0.459458738565,,-0.00943644671561,-0.0231994136612,0.587610712819,0.808756074875
1540963664770951658,,36,,1540963664,528304700,'',,,25.6236076355,21.1583614349,-0.45828640461,,-0.0089395036533,-0.0218129071634,0.587758672426,0.808692783244
1540963665061192545,,37,,1540963664,880738136,'',,,26.1718463898,22.6765766144,-0.455194681883,,-0.00848858334202,-0.0225957112123,0.587403553513,0.80893414469
1540963665426832338,,38,,1540963665,232691287,'',,,26.7403697968,24.2416286469,-0.439479619265,,-0.00812100106939,-0.0237223358192,0.587198614616,0.809054441563
1540963665813237023,,39,,1540963665,584948800,'',,,27.299955368,25.8245697021,-0.425105839968,,-0.00772399909703,-0.0250095225818,0.587349440052,0.808910059221
1540963666115465273,,40,,1540963665,921579443,'',,,27.8583488464,27.4455986023,-0.408010780811,,-0.010258671238,-0.0276972902716,0.587689051925,0.808547580709
1540963666458817232,,41,,1540963666,274220426,'',,,28.4189243317,29.0523319244,-0.394194632769,,-0.00973092695297,-0.0292454635016,0.5866868903,0.809227101058
1540963666803427432,,42,,1540963666,619487629,'',,,28.9912414551,30.66705513,-0.363728970289,,-0.013935866538,-0.0322187008098,0.584792498754,0.810423016564
1540963667132727508,,43,,1540963666,970990984,'',,,29.5856170654,32.2908477783,-0.34716463089,,-0.0107841727485,-0.0308959015127,0.582926044248,0.811865981025
1540963667587372453,,44,,1540963667,316873856,'',,,30.1890983582,33.925819397,-0.309159249067,,-0.00855582154267,-0.0322647929267,0.582037511402,0.812476538356
1540963668044907401,,45,,1540963667,668785601,'',,,30.8048248291,35.5554733276,-0.266045302153,,-0.00402256692784,-0.0297298393654,0.581119416788,0.813265151342
1540963668296830125,,46,,1540963668,21630906,'',,,31.4107398987,37.1836853027,-0.223036170006,,0.000431573459904,-0.0255754575285,0.580692766988,0.813720849624
1540963668578426023,,47,,1540963668,373698429,'',,,32.0294685364,38.8211402893,-0.179433599114,,0.0057453963106,-0.0203501789128,0.581091876699,0.813563206009
1540963668922335316,,48,,1540963668,710300015,'',,,32.6472206116,40.4820861816,-0.142322540283,,0.00945083763505,-0.0171972060516,0.581431849957,0.813358444852
1540963669264333751,,49,,1540963669,62695588,'',,,33.2755622864,42.1206970215,-0.101012863219,,0.0113663004494,-0.0121673730175,0.580950186442,0.813768785431
1540963669701127520,,50,,1540963669,415117437,'',,,33.9049072266,43.7399291992,-0.0784326195717,,0.0131311389302,-0.00940289581262,0.582912029664,0.812374756403
1540963669944295889,,51,,1540963669,759818969,'',,,34.4715805054,45.3173370361,-0.060082372278,,0.0149328267687,-0.00940834822547,0.584651463897,0.811092551518
1540963670394922263,,52,,1540963670,168122209,'',,,35.1094512939,47.0010986328,-0.0403672009706,,0.0187362031077,-0.0115852688814,0.585862311702,0.810111151629
1540963670741554358,,53,,1540963670,561382333,'',,,35.7089042664,48.5795822144,0.00134498835541,,0.0211206819646,-0.00994076973604,0.586627880301,0.809520121676
1540963671245775541,,54,,1540963671,10234266,'',,,36.266330719,50.216293335,0.0452751033008,,0.0218080477772,-0.00814996248499,0.59000390298,0.807064660776
1540963671666648389,,55,,1540963671,459105062,'',,,36.8281898499,51.7670936584,0.079309284687,,0.023659192325,-0.00637576799708,0.592353589952,0.805305415001
1540963672173183324,,56,,1540963671,963815482,'',,,37.3935089111,53.3923492432,0.113846562803,,0.0225503244754,-0.0067075081184,0.592097033066,0.805523211565
1540963672775631440,,57,,1540963672,509665202,'',,,37.9759674072,55.0737838745,0.147328689694,,0.0203950428114,-0.00898594801494,0.587456525427,0.808948789041
1540963673181739023,,58,,1540963673,5490639,'',,,38.5542678833,56.5979042053,0.177850291133,,0.0187880909146,-0.0105696077,0.56982222344,0.821485217026
1540963673765975344,,59,,1540963673,550677367,'',,,39.3044052124,58.2249526978,0.203879490495,,0.0175361299456,-0.0109251865133,0.535621931997,0.844205102219
1540963674398769815,,60,,1540963674,48764392,'',,,40.1337127686,59.6626434326,0.225332632661,,0.0165435686733,-0.00740533362364,0.493271256635,0.869686700956
1540963674764850525,,61,,1540963674,559502699,'',,,41.1099967957,61.0637207031,0.251216739416,,0.0148580324457,-0.00546723380069,0.442353514834,0.896700997038
1540963675326669031,,62,,1540963675,48288343,'',,,42.3477096558,62.3597946167,0.243590936065,,0.0183325522074,-0.00504444726852,0.381362289359,0.924230105023
1540963675755617484,,63,,1540963675,496774389,'',,,43.624786377,63.4336738586,0.251932710409,,0.0169017991197,-0.0072874219095,0.323350520299,0.946100229923
1540963676158565912,,64,,1540963675,945847382,'',,,45.0546684265,64.3507461548,0.249330341816,,0.0139281691756,-0.00942184555827,0.26699473011,0.963551261785
1540963676665133023,,65,,1540963676,394873386,'',,,46.6194419861,65.1127929688,0.259324163198,,0.0099210497218,-0.00968274281056,0.209611661532,0.977686433611
1540963677191698950,,66,,1540963676,843002027,'',,,48.2766685486,65.6908493042,0.260238915682,,0.00405796256015,-0.0104853225946,0.152816389899,0.988190650557
1540963677495456152,,67,,1540963677,284692996,'',,,49.9859313965,66.0941467285,0.257662445307,,0.00296162866582,-0.00915832126724,0.101380811553,0.994801120147
1540963677944035101,,68,,1540963677,734210063,'',,,51.6747970581,66.3198471069,0.257371217012,,0.00312262321819,-0.0095921255102,0.0602016978899,0.998135258593
1540963678440522725,,69,,1540963678,182685700,'',,,53.321685791,66.4174575806,0.254276156425,,0.00399279804406,-0.00881219629034,0.0283165207067,0.999552186893
1540963678991854820,,70,,1540963678,694166766,'',,,55.1203422546,66.4138946533,0.251258343458,,0.00688141262427,-0.00746094096242,0.00705950978234,0.999923561572
1540963679455142860,,71,,1540963679,183557664,'',,,56.7931251526,66.383644104,0.250102430582,,0.00757183539154,-0.024228174158,-0.00124943013757,0.999676994967
1540963679942218836,,72,,1540963679,688265310,'',,,58.4338111877,66.3380889893,0.240413606167,,0.0083203156508,-0.0221011226677,0.00152738238078,0.999719953067
1540963680573770776,,73,,1540963680,184249794,'',,,59.9734954834,66.3101577759,0.298786491156,,0.0106623207902,-0.00465235510923,0.0121786386656,0.99985816814
1540963680939699353,,74,,1540963680,729964022,'',,,61.6509017944,66.353302002,0.30825278163,,0.00166932982043,0.0062019505453,0.0421334948366,0.999091353956
1540963681465493990,,75,,1540963681,274309213,'',,,63.3152809143,66.5353469849,0.218497991562,,0.00821990161504,-0.00869040708958,0.0935307449862,0.995544536498
1540963681969920618,,76,,1540963681,778700574,'',,,64.811126709,66.8747329712,0.224219620228,,0.00467210602376,-0.00994030714787,0.157447485506,0.987466272551
1540963682598256427,,77,,1540963682,324398307,'',,,66.381072998,67.455116272,0.216935485601,,0.00705918547468,-0.0130438443628,0.232310853708,0.972528495212
1540963683247349070,,78,,1540963682,828566889,'',,,67.7286453247,68.1627807617,0.238345712423,,0.011265127144,-0.0151364200892,0.29214050093,0.956189256185
1540963683654072470,,79,,1540963683,374260731,'',,,69.1093444824,69.1723556519,0.2585529387,,0.0144745199499,-0.0214601196164,0.348704261875,0.936875278226
1540963684364224640,,80,,1540963683,870146710,'',,,70.2787246704,70.1841812134,0.290094137192,,0.0178788751959,-0.0224131977895,0.385717292487,0.922171431905
1540963684687090331,,81,,1540963684,415595713,'',,,71.5438308716,71.4911651611,0.357410907745,,0.0171880189517,-0.0223575881872,0.422433435487,0.905955118677
1540963685296111093,,82,,1540963684,919860300,'',,,72.6433105469,72.8087997437,0.41327226162,,0.0142854213994,-0.0216901698677,0.44583238607,0.894739601492
1540963685625394322,,83,,1540963685,425336617,'',,,73.7671737671,74.2608032227,0.461449146271,,0.0123981144014,-0.0214785432091,0.461970869226,0.886548298993
1540963686233545898,,84,,1540963685,873942000,'',,,74.8037033081,75.6825027466,0.508099138737,,0.0118453723023,-0.0229281205399,0.469638536745,0.882481504522
1540963686538449322,,85,,1540963686,322297615,'',,,75.8395462036,77.1242599487,0.559381246567,,0.00999855959883,-0.0261957654772,0.471605529969,0.881363743347
1540963687145947144,,86,,1540963686,714745691,'',,,76.7950286865,78.4676132202,0.607842385769,,0.00844284961736,-0.028359402507,0.473618659036,0.88023282286
1540963687367236004,,87,,1540963687,108574416,'',,,77.7780685425,79.8993759155,0.667954146862,,0.012100783569,-0.0281396161374,0.475218514804,0.879334468368
1540963687611076368,,88,,1540963687,508919446,'',,,78.8127975464,81.3689117432,0.736432909966,,0.0205685091069,-0.0270854109133,0.476833081353,0.878335665822
1540963688121153073,,89,,1540963687,909382974,'',,,79.8269348145,82.8463592529,0.821483552456,,0.0277972937206,-0.0203250326652,0.479698648202,0.876757347156
1540963688604504082,,90,,1540963688,310428337,'',,,80.8735046387,84.3574295044,0.888275682926,,0.0287118842218,-0.0123868045429,0.483359454197,0.874863341423
1540963688946910582,,91,,1540963688,662425246,'',,,81.7843933105,85.7293395996,0.930492579937,,0.0277222983631,-0.0131745176441,0.487742161331,0.87244800108
1540963689227343594,,92,,1540963689,14653040,'',,,82.68699646,87.1292877197,0.97376203537,,0.0284555934635,-0.0125999603513,0.493832489093,0.869000001311
1540963689572649165,,93,,1540963689,401324860,'',,,83.7117080688,88.7673873901,1.02878403664,,0.0279794881054,-0.0135895238417,0.500267154174,0.865312228349
1540963689928134797,,94,,1540963689,752665139,'',,,84.596031189,90.176902771,1.08134686947,,0.0310984352071,-0.0120421808486,0.510186236561,0.859417164375
1540963690354603628,,95,,1540963690,105702429,'',,,85.3938598633,91.6472091675,1.12957334518,,0.0305288275041,-0.0125171596544,0.527232197037,0.849080414371
1540963690868736802,,96,,1540963690,457103984,'',,,86.1750488281,93.1363754272,1.1830354929,,0.0311059311234,-0.0112817219175,0.547371748577,0.836235211738
1540963691072974410,,97,,1540963690,849943443,'',,,86.912612915,94.8996734619,1.24885308743,,0.0299833599298,-0.00952216383665,0.575392753232,0.817272014697
1540963691536375962,,98,,1540963691,195708593,'',,,87.4799728394,96.4691390991,1.29597246647,,0.0284926580214,-0.00880208504791,0.59983214913,0.799569949029
1540963691806074783,,99,,1540963691,548264470,'',,,87.8882904053,98.0084228516,1.34252810478,,0.0248441821531,-0.00712507504825,0.624371458422,0.780699884329
1540963692094942279,,100,,1540963691,899705418,'',,,88.3012390137,99.5816650391,1.39236164093,,0.0172181913612,-0.0110726749164,0.64497856371,0.763926417279
1540963692622293088,,101,,1540963692,252555335,'',,,88.5844650269,101.208984375,1.42103242874,,0.0107664623774,-0.0166050104993,0.659094170694,0.75179998399
1540963692872289256,,102,,1540963692,644497095,'',,,88.8583755493,103.050422668,1.4599250555,,0.00473954124654,-0.024988880971,0.664972717469,0.746434448505
1540963693275320690,,103,,1540963693,53870664,'',,,89.0711212158,104.815315247,1.49930405617,,0.00696140663835,-0.029854655027,0.669932743829,0.741788612639
1540963693746741995,,104,,1540963693,446102523,'',,,89.2812042236,106.511505127,1.53702867031,,0.00877524390772,-0.0441599823063,0.674692750153,0.73672424104
1540963694067831783,,105,,1540963693,854537649,'',,,89.4855880737,108.231025696,1.64778161049,,-0.00791058869389,-0.0239659330037,0.677806840357,0.734806744248
1540963694433477509,,106,,1540963694,241425924,'',,,89.6644592285,109.931259155,1.68665385246,,-0.00363949905038,-0.0246087545622,0.681277596778,0.731602373055
1540963694856902164,,107,,1540963694,640444939,'',,,89.8408889771,111.635124207,1.67479622364,,0.00405140987263,-0.0293381328139,0.682762331419,0.730040043215
1540963695304358720,,108,,1540963695,42007017,'',,,90.0060577393,113.41973114,1.72577047348,,0.00872172918839,-0.0323009788754,0.682899749987,0.729745501719
1540963695660219383,,109,,1540963695,441050936,'',,,90.1859207153,115.170433044,1.79835689068,,0.00887562810365,-0.0297526718055,0.681513372208,0.731146713292
1540963696113890638,,110,,1540963695,842098730,'',,,90.3592910767,116.884101868,1.85345256329,,0.0103741063557,-0.029153897959,0.679024018974,0.733463546057
1540963696517044282,,111,,1540963696,234417513,'',,,90.5463104248,118.615325928,1.9071726799,,0.0122823263248,-0.0298124388941,0.675606908842,0.736556645052
1540963696859130505,,112,,1540963696,643154855,'',,,90.7598419189,120.336891174,1.98634636402,,0.0165878987992,-0.0298549187648,0.67345848604,0.738435621875
1540963697363896171,,113,,1540963697,35417564,'',,,90.9735183716,122.01688385,2.06266570091,,0.0194495506712,-0.0332360749405,0.67180700557,0.739724544803
1540963697713754463,,114,,1540963697,428327341,'',,,91.1767883301,123.704917908,2.14533638954,,0.0185252201739,-0.0360102961198,0.673718476881,0.737877678694
1540963698282983091,,115,,1540963697,830199101,'',,,91.4100799561,125.406257629,2.24416279793,,0.0137181424316,-0.035916916744,0.676138954501,0.735770291216
1540963698524542319,,116,,1540963698,229419464,'',,,91.6014633179,127.104789734,2.33709645271,,0.0161952288392,-0.0352936399358,0.677820187143,0.734201500821
1540963699013709660,,117,,1540963698,630636288,'',,,91.7420425415,128.79989624,2.42665076256,,0.0156602924301,-0.0359869155819,0.678889387362,0.733190909687
1540963699316098060,,118,,1540963699,23636022,'',,,91.9860229492,130.479248047,2.50736474991,,0.014230014424,-0.034610314049,0.679779028825,0.732461686642
1540963699743401325,,119,,1540963699,431908750,'',,,92.128036499,132.201324463,2.60041260719,,0.0128105663889,-0.0338472492828,0.680852414166,0.731525973111
1540963700066055247,,120,,1540963699,824080911,'',,,92.2874450684,133.948791504,2.68554258347,,0.0128745870518,-0.0332249092869,0.68157042681,0.730884456663
1540963700553958777,,121,,1540963700,232750098,'',,,92.4214019775,135.637191772,2.76838469505,,0.0130140637444,-0.0325674685802,0.681759233576,0.730735485315
1540963700903510443,,122,,1540963700,681633991,'',,,92.6048278809,137.541000366,2.85430502892,,0.0171782268867,-0.0324881461619,0.683583544869,0.728946494456
1540963701367027864,,123,,1540963701,129963733,'',,,92.7839202881,139.415115356,2.94750547409,,0.0171000373151,-0.0311517203967,0.684989735506,0.727685508454
1540963701874119784,,124,,1540963701,578702513,'',,,92.9401702881,141.133346558,3.02992010117,,0.0207587807509,-0.0320250073583,0.685313359388,0.727247573397
1540963702337908297,,125,,1540963702,27364765,'',,,93.0633926392,142.734207153,3.1294298172,,0.0186445936095,-0.0309401900676,0.683657433546,0.728908469973
1540963702576924645,,126,,1540963702,476489924,'',,,93.276473999,144.318603516,3.20825910568,,0.0206977873652,-0.031609114442,0.681814127809,0.730549083719
1540963703278857909,,127,,1540963703,21767120,'',,,93.4456253052,146.096252441,3.30188274384,,0.0235182651801,-0.0334262755489,0.679156671646,0.732854551306
1540963703907621593,,128,,1540963703,566724521,'',,,93.6337738037,147.795333862,3.40502071381,,0.0246028675143,-0.0345732267679,0.677044312004,0.734717911698
1540963704343843547,,129,,1540963704,63394230,'',,,93.8101730347,149.497421265,3.50823235512,,0.0246912605993,-0.0338208598193,0.674141327805,0.737414363257
1540963704908318329,,130,,1540963704,560655932,'',,,94.0606460571,151.214935303,3.60982871056,,0.0240899342391,-0.0344433361737,0.671283094041,0.740008370011
1540963705312480064,,131,,1540963705,57345798,'',,,94.2609634399,152.916748047,3.7196996212,,0.0202348482072,-0.0350009865488,0.671781786738,0.739644999883
1540963705856786968,,132,,1540963705,505567114,'',,,94.4540939331,154.545822144,3.81611824036,,0.0143857574071,-0.0372554998952,0.671404710262,0.740014038408
1540963706204415186,,133,,1540963705,954743039,'',,,94.6340560913,156.234390259,3.90313911438,,0.0166044490989,-0.0413367623368,0.671058606919,0.740064800335
1540963706748272338,,134,,1540963706,403114755,'',,,94.8508605957,158.009292603,4.01606655121,,0.0140763418975,-0.041956319316,0.671412984463,0.739760876498
1540963707066380010,,135,,1540963706,851656057,'',,,95.0634613037,159.764633179,4.12119293213,,0.0124555071582,-0.0411593332784,0.673972407971,0.737503869897
1540963707736901900,,136,,1540963707,252822391,'',,,95.2239837646,161.384521484,4.21749448776,,0.0128913960218,-0.0404311383924,0.677301377665,0.734480723421
1540963708044140060,,137,,1540963707,645492931,'',,,95.3999938965,163.05657959,4.3109126091,,0.0171795075476,-0.0412299306327,0.677505870966,0.734159861665
1540963708306267408,,138,,1540963708,53894760,'',,,95.625038147,164.857177734,4.42140436172,,0.0170328757077,-0.0405891327076,0.677919933631,0.73381673615
1540963708933894057,,139,,1540963708,446524249,'',,,95.8311920166,166.661865234,4.53070878983,,0.0165840717248,-0.0412506058534,0.676549666991,0.735053664478
1540963709318129301,,140,,1540963708,854727711,'',,,96.0561599731,168.517593384,4.64737558365,,0.0182611110917,-0.0414127650321,0.67688959847,0.734691765879
1540963709582247546,,141,,1540963709,247578911,'',,,96.2623748779,170.375320435,4.76432943344,,0.0162350706444,-0.04268013901,0.676615908253,0.734918848262
1540963709957381440,,142,,1540963709,592433110,'',,,96.4194030762,171.997695923,4.87503671646,,0.0140909451864,-0.0393883995554,0.676994066069,0.734798656676
1540963710243262130,,143,,1540963709,945129704,'',,,96.5893554688,173.652450562,4.97114419937,,0.00961298932652,-0.0406816908239,0.676568303771,0.735192456453
1540963710585526380,,144,,1540963710,297917741,'',,,96.8045501709,175.350082397,5.0552611351,,0.0101433464634,-0.0435879862481,0.675646487151,0.735866150009
1540963710931140547,,145,,1540963710,650011835,'',,,96.9898223877,177.104721069,5.15891122818,,0.0106656173542,-0.0424465023044,0.674950286418,0.736564096286
1540963711233808575,,146,,1540963711,2278845,'',,,97.1773681641,178.873886108,5.25802278519,,0.0109825012116,-0.0425912081942,0.67486326411,0.736630834136
1540963711596303638,,147,,1540963711,339047022,'',,,97.3810577393,180.627197266,5.35726165771,,0.0174258998174,-0.042480608996,0.674378433137,0.736956914772
1540963712064239471,,148,,1540963711,691084002,'',,,97.5984725952,182.336242676,5.4596991539,,0.016757312422,-0.0444328017116,0.673337211044,0.737808866096
1540963712344441956,,149,,1540963712,35835834,'',,,97.8427276611,184.086837769,5.58639478683,,0.017453490706,-0.040821960889,0.672138667785,0.739093074307
1540963712657740349,,150,,1540963712,388134213,'',,,98.0593948364,185.86857605,5.69450378418,,0.015537316072,-0.0423188188955,0.671054286964,0.740036389388
1540963713023561266,,151,,1540963712,733260871,'',,,98.2975006104,187.653335571,5.80924224854,,0.0213489157428,-0.0430897800361,0.670133012266,0.74068159871
1540963713386272785,,152,,1540963713,85880359,'',,,98.5103607178,189.36680603,5.9337978363,,0.0218238816933,-0.0396503191873,0.6703256843,0.74068553306
1540963713714674108,,153,,1540963713,438807330,'',,,98.7132949829,191.088973999,6.05166625977,,0.0209391751324,-0.0401273489654,0.669921031305,0.741051386572
1540963714097261160,,154,,1540963713,790787410,'',,,98.9659957886,192.882797241,6.17372274399,,0.0237214283383,-0.0417784665566,0.669790667759,0.740994146556
1540963714556851937,,155,,1540963714,128444324,'',,,99.2156219482,194.61328125,6.2959113121,,0.022578275008,-0.0418459312887,0.670382818905,0.740490373415
1540963714790487487,,156,,1540963714,479690356,'',,,99.4316940308,196.325042725,6.420317173,,0.0256056776641,-0.0411866011348,0.671968883708,0.738989742359
1540963715099582392,,157,,1540963714,825396471,'',,,99.6165618896,198.057937622,6.54815149307,,0.0289627176035,-0.0424258420002,0.67463768928,0.736359424836
1540963715544542645,,158,,1540963715,177037693,'',,,99.8049163818,199.711700439,6.6786236763,,0.0364316571589,-0.051833747711,0.679566495245,0.730873043202
1540963715786357113,,159,,1540963715,529118254,'',,,100.009933472,201.379592896,6.84708023071,,0.0175229125886,-0.027451302602,0.686567309383,0.726336494668
1540963716106771158,,160,,1540963715,875504071,'',,,100.10345459,203.092163086,6.95497941971,,0.0308689019746,-0.0314891773801,0.698368903972,0.714378347767
1540963716459676061,,161,,1540963716,226962375,'',,,100.190483093,204.757354736,7.03497886658,,0.0364782511587,-0.0354355979031,0.716906990097,0.695311436826
1540963716802541368,,162,,1540963716,579530502,'',,,100.109794617,206.444610596,7.17707252502,,0.036569586835,-0.0353340461055,0.744159366452,0.666063829954
1540963717173185048,,163,,1540963716,931583026,'',,,99.9233779907,208.069656372,7.30637359619,,0.0339826791648,-0.0358761370379,0.770890272111,0.63504824289
1540963717657250704,,164,,1540963717,283942980,'',,,99.5989837646,209.731781006,7.4367017746,,0.034647340242,-0.0357301530423,0.79594278149,0.603322476587
1540963717942421052,,165,,1540963717,670076201,'',,,99.0694198608,211.566604614,7.57913208008,,0.0333983598099,-0.0341857934444,0.824081963202,0.564450927255
1540963718385910250,,166,,1540963718,21894312,'',,,98.4667663574,213.072891235,7.70005989075,,0.0307399630763,-0.0369773000373,0.844483588103,0.533418402338
1540963718653186144,,167,,1540963718,374775577,'',,,97.726020813,214.581665039,7.81802463531,,0.0294546883471,-0.0372127027966,0.860333474224,0.507517457495
1540963718955110577,,168,,1540963718,726463805,'',,,96.9501953125,216.056610107,7.92663097382,,0.0284202488825,-0.0382602549305,0.874771590734,0.482185790911
1540963719358057947,,169,,1540963719,78708250,'',,,96.0437316895,217.483810425,8.0360622406,,0.0278661181041,-0.0395774954031,0.887406750266,0.458439048885
1540963719702876189,,170,,1540963719,464111680,'',,,94.9308624268,219.081634521,8.15697097778,,0.0241529124305,-0.0418529903242,0.898802550415,0.435682140968
1540963720046168422,,171,,1540963719,817980268,'',,,93.9168243408,220.394042969,8.2586774826,,0.0240612546199,-0.0416119851742,0.902659951167,0.427661698594
1540963720492196662,,172,,1540963720,170218306,'',,,92.8713531494,221.720306396,8.34644412994,,0.0218678224109,-0.042386490611,0.905775250028,0.42106576009
1540963720794187069,,173,,1540963720,522093138,'',,,91.7709732056,223.074691772,8.44611740112,,0.0227579386469,-0.041059178361,0.908374917795,0.415513227288
1540963721142571514,,174,,1540963720,859116003,'',,,90.6497116089,224.436553955,8.54368782043,,0.0214089574843,-0.0431156284548,0.910168209734,0.411432303608
1540963721464694427,,175,,1540963721,211123127,'',,,89.5352401733,225.76713562,8.64129543304,,0.0213822771507,-0.0424157469268,0.911265053919,0.409071725659
1540963721827071654,,176,,1540963721,555726982,'',,,88.4358215332,227.064559937,8.72843551636,,0.021352899434,-0.0426301373098,0.911571973347,0.408366601562
1540963722192920547,,177,,1540963721,908437097,'',,,87.2807922363,228.456665039,8.83384513855,,0.0232290635416,-0.0435832287796,0.911629814184,0.408034309192
1540963722555398611,,178,,1540963722,260341524,'',,,86.0979766846,229.855331421,8.93130588531,,0.0243991190959,-0.0413561239632,0.91091454315,0.409791454492
1540963722797116030,,179,,1540963722,605662965,'',,,84.9138336182,231.271469116,9.04521465302,,0.024111051105,-0.0405277071376,0.910911320528,0.409898383991
1540963723311742373,,180,,1540963722,958370395,'',,,83.7211990356,232.68208313,9.14297103882,,0.0247193446666,-0.0405374794764,0.910418861388,0.410953939739
1540963723694431661,,181,,1540963723,311021667,'',,,82.5626525879,234.087295532,9.24523353577,,0.0237739590802,-0.0416838722454,0.909880657794,0.412085461739
1540963723935855751,,182,,1540963723,662826247,'',,,81.3870620728,235.509521484,9.35150241852,,0.023961656503,-0.0439859436327,0.909373589479,0.412953712515
1540963724268867333,,183,,1540963723,999924358,'',,,80.2068252563,236.951171875,9.46723461151,,0.0240391453942,-0.0442307430995,0.908695604252,0.414412906904
1540963724633256005,,184,,1540963724,304019557,'',,,79.1637039185,238.222610474,9.56298828125,,0.0242969923524,-0.044294913314,0.908548359217,0.414713768037
1540963724854819565,,185,,1540963724,656524007,'',,,77.9461288452,239.70010376,9.68033027649,,0.0238390434291,-0.0457900643887,0.908774788714,0.414081307818
1540963725205538791,,186,,1540963724,952759992,'',,,76.9295349121,240.923171997,9.77741622925,,0.0242813449847,-0.0463438688968,0.908145894534,0.415371725536
1540963725550011218,,187,,1540963725,298987626,'',,,75.7179412842,242.405426025,9.90968513489,,0.0234442546379,-0.0482049074461,0.907702244286,0.416176960921
1540963725913766270,,188,,1540963725,601811047,'',,,74.6893081665,243.680404663,10.0105066299,,0.0221298442783,-0.0491495347218,0.907216748533,0.417195836767
1540963726155310729,,189,,1540963725,907158653,'',,,73.6544036865,244.983398438,10.1191196442,,0.0225247190697,-0.0506035376418,0.906657472624,0.418215437403
1540963726482692004,,190,,1540963726,258709019,'',,,72.4247741699,246.497451782,10.2432537079,,0.0229196758431,-0.0495631823298,0.907218834523,0.417099694037
1540963726780837831,,191,,1540963726,549144432,'',,,71.3709106445,247.788619995,10.3513698578,,0.0226926118147,-0.0482316863533,0.907516145838,0.416621189454
1540963727071317678,,192,,1540963726,844546828,'',,,70.3308639526,249.070098877,10.4541921616,,0.0234245151659,-0.0476497360832,0.908412458024,0.414689773986
1540963727427002584,,193,,1540963727,155939134,'',,,69.2644958496,250.36668396,10.5587711334,,0.0234750046596,-0.0455656722429,0.909161568532,0.413277066068
1540963727700146136,,194,,1540963727,444888986,'',,,68.1893463135,251.670944214,10.6587238312,,0.0228158858816,-0.0468796276227,0.910352440183,0.410536456388
1540963727942812924,,195,,1540963727,741248298,'',,,67.0769348145,252.993972778,10.7751102448,,0.0231297189805,-0.047232560592,0.910570713355,0.409993975724
1540963728269990450,,196,,1540963728,38596176,'',,,65.9765625,254.328262329,10.8717870712,,0.0242557061731,-0.047843295721,0.910551468336,0.409900850971
1540963728628802221,,197,,1540963728,342880259,'',,,64.844909668,255.634643555,10.9862709045,,0.0251961465747,-0.047665476511,0.911034843518,0.408789249278
1540963728872910402,,198,,1540963728,638600912,'',,,63.7354393005,256.965148926,11.0937204361,,0.024485392196,-0.0462598106764,0.911393344015,0.40819442666
1540963729174711087,,199,,1540963728,935412977,'',,,62.6132736206,258.301147461,11.1971139908,,0.025319353222,-0.0457856381641,0.911440896367,0.408090796405
1540963729536930301,,200,,1540963729,240330311,'',,,61.5005950928,259.626220703,11.308052063,,0.0238551416517,-0.0455219712776,0.911391676327,0.408318370068
1540963729781234477,,201,,1540963729,535728029,'',,,60.3710021973,260.958618164,11.4138402939,,0.0232881416131,-0.0467994549477,0.911082013872,0.408897358145
1540963730166118448,,202,,1540963729,832982463,'',,,59.2453994751,262.2940979,11.519862175,,0.0243466152953,-0.047586220376,0.911412718403,0.408006918394
1540963730411272603,,203,,1540963730,137301033,'',,,58.12449646,263.605834961,11.6262149811,,0.0244014182936,-0.0469835047734,0.91228190226,0.406126652484
1540963730658791152,,204,,1540963730,433616758,'',,,56.9826316833,264.899169922,11.7381248474,,0.0258504140932,-0.0448290442912,0.915046700005,0.400014561393
1540963730962441523,,205,,1540963730,729822272,'',,,55.8575706482,266.188903809,11.8494253159,,0.0238102572406,-0.0431575349103,0.919354290006,0.390330850328
1540963731244485324,,206,,1540963731,36029286,'',,,54.7015342712,267.442016602,11.9559059143,,0.0252526916461,-0.04367404994,0.924800723751,0.377092150897
1540963731546821644,,207,,1540963731,330606353,'',,,53.5090942383,268.682800293,12.0473508835,,0.0286724891902,-0.0418650809601,0.932885232323,0.356581503127
1540963731853692438,,208,,1540963731,628109125,'',,,52.2579307556,269.815948486,12.1554727554,,0.0285200036994,-0.0391817189502,0.942646871147,0.33025486859
1540963732155590645,,209,,1540963731,932393528,'',,,50.9614639282,270.837310791,12.2506971359,,0.0307619412434,-0.0347507730237,0.952846447311,0.29988282338
1540963732437562579,,210,,1540963732,228045403,'',,,49.5912055969,271.775299072,12.3491201401,,0.0308790478779,-0.0329756798522,0.963675846174,0.263226077293
1540963732819052967,,211,,1540963732,580390176,'',,,47.9515724182,272.742095947,12.4569244385,,0.0281929482969,-0.0342986009413,0.974972811956,0.217845737512
1540963733380299457,,212,,1540963732,927014305,'',,,46.2502365112,273.527954102,12.5493774414,,0.0267116736971,-0.0366321515597,0.984308346505,0.170533464872
1540963733713815741,,213,,1540963733,325943193,'',,,44.1842079163,274.223510742,12.6455602646,,0.0236994265321,-0.0385875169348,0.992042560955,0.117477197945
1540963733995887776,,214,,1540963733,630294932,'',,,42.6327857971,274.591674805,12.705121994,,0.023048220447,-0.0398171307456,0.995700623968,0.0803965556027
1540963734257577325,,215,,1540963733,982849703,'',,,40.8013076782,274.861328125,12.7658548355,,0.0219052785052,-0.0426067564231,0.997750964407,0.0468810333289
1540963734565367251,,216,,1540963734,319969002,'',,,38.9696578979,275.045654297,12.8133563995,,0.0206969765514,-0.0449735155451,0.998288575111,0.0311278985002
1540963734908392035,,217,,1540963734,672194109,'',,,37.1383705139,275.180755615,12.8571882248,,0.0208608374903,-0.0431932824926,0.99851750216,0.0257289230942
1540963735383278506,,218,,1540963735,17202968,'',,,35.3354110718,275.32421875,12.8994283676,,0.0214070368965,-0.0424087719035,0.998571679676,0.0244501688841
1540963735626751242,,219,,1540963735,328819127,'',,,33.7358970642,275.451293945,12.9497671127,,0.0207975919991,-0.0414794729216,0.998600957143,0.0253581836243
1540963735950301127,,220,,1540963735,666140903,'',,,31.9005756378,275.585876465,12.9913339615,,0.0212276140634,-0.0411568705799,0.998516032215,0.0286566171836
1540963736233538888,,221,,1540963736,18063386,'',,,30.0782737732,275.741668701,13.0355548859,,0.034437691211,-0.0417733549263,0.998025935004,0.0318313071405
1540963736576185375,,222,,1540963736,364255714,'',,,28.3098297119,275.905731201,13.1242542267,,0.0165809546564,-0.0408270141536,0.998362078975,0.0364883115056
1540963736905405369,,223,,1540963736,675652796,'',,,26.7108306885,276.096466064,13.192773819,,0.00940892253147,-0.0394545262076,0.998497474911,0.036845546034
1540963737413185484,,224,,1540963737,12686675,'',,,24.8836479187,276.275512695,13.162358284,,0.0305937111257,-0.0414535454342,0.997971272451,0.0374030285747
1540963737715647982,,225,,1540963737,364680022,'',,,23.0565071106,276.474212646,13.2482309341,,0.0246545246468,-0.0404442190767,0.998160540534,0.037840986536
1540963737940621531,,226,,1540963737,709287750,'',,,21.2458610535,276.665649414,13.3106822968,,0.0216790736695,-0.0382501277113,0.99830176277,0.0382167501692
1540963738243139468,,227,,1540963738,21879568,'',,,19.6652488708,276.845245361,13.3616161346,,0.020097725367,-0.0365183190751,0.998402332528,0.0381482958137
1540963738626259480,,228,,1540963738,358395938,'',,,17.8192005157,277.035095215,13.4048528671,,0.0172543159028,-0.038373713644,0.998363407353,0.0387333475598
1540963739012260482,,229,,1540963738,710974563,'',,,15.961224556,277.239959717,13.4427108765,,0.021152129481,-0.0345512949299,0.998426637605,0.0387690811459
1540963739273700225,,230,,1540963739,56550883,'',,,14.1474218369,277.45022583,13.4863710403,,0.0193592645243,-0.0330288762377,0.998480626042,0.0396324703666
1540963739596556294,,231,,1540963739,367952137,'',,,12.6091871262,277.618103027,13.5331983566,,0.0168148907502,-0.0307593627478,0.998531947795,0.0412925200286
1540963739902719217,,232,,1540963739,705775684,'',,,10.7848939896,277.810943604,13.567442894,,0.0148699903053,-0.0343102029462,0.998461687514,0.0409383176684
1540963740266760350,,233,,1540963740,57300922,'',,,8.95789241791,278.038146973,13.5946416855,,0.0169801997647,-0.0354610701873,0.998449203411,0.039412701748
1540963740672852239,,234,,1540963740,409563605,'',,,7.12055158615,278.239379883,13.6231441498,,0.0169275455375,-0.0380942834839,0.998386310405,0.0385626507601
1540963740966414405,,235,,1540963740,754535896,'',,,5.29686260223,278.421142578,13.6616020203,,0.0148596534336,-0.0419143639407,0.998304471928,0.037557099882
1540963741334361361,,236,,1540963741,107059498,'',,,3.5342605114,278.600952148,13.6869049072,,0.0168582907911,-0.0435253654313,0.998249593255,0.036318915761
1540963741764410045,,237,,1540963741,452330912,'',,,1.72891378403,278.786132812,13.7135095596,,0.0199334921184,-0.0445510806731,0.998174722624,0.0355681210106
1540963742026242949,,238,,1540963741,804048051,'',,,-0.0667288526893,278.991027832,13.7651548386,,0.0186428278277,-0.041569691557,0.9983503026,0.0349437310793
1540963742370877672,,239,,1540963742,156968265,'',,,-1.82428896427,279.15032959,13.8012046814,,0.0187636742946,-0.0431892122195,0.998248212479,0.0358207278194
1540963742855870451,,240,,1540963742,509033259,'',,,-3.52053761482,279.318664551,13.8443069458,,0.0188590894094,-0.0436817262016,0.998207139139,0.0363139033268
1540963743105573977,,241,,1540963742,894760292,'',,,-5.42638731003,279.501617432,13.8899745941,,0.0192974937192,-0.0440945216408,0.998151441497,0.037107806972
1540963743429974858,,242,,1540963743,246966994,'',,,-7.01265525818,279.676177979,13.9349193573,,0.0188751432551,-0.0440286459293,0.998129585557,0.0379807803823
1540963743780802245,,243,,1540963743,598726374,'',,,-8.62175941467,279.841796875,13.9756793976,,0.0190774150269,-0.0437937647074,0.998107938149,0.0387130481045
1540963744202546763,,244,,1540963743,951035036,'',,,-10.2381677628,280.021179199,14.0190219879,,0.0205110583584,-0.0422782317494,0.998052078204,0.0410355315411
1540963744545190009,,245,,1540963744,343707490,'',,,-12.0300741196,280.215057373,14.0612792969,,0.0205401062524,-0.0415582699497,0.998031847518,0.0422306521937
1540963744942626531,,246,,1540963744,752399130,'',,,-13.7447738647,280.404602051,14.1194944382,,0.0184666975444,-0.0413666852878,0.99806623944,0.0425624390398
1540963745510673685,,247,,1540963745,201093200,'',,,-15.6541585922,280.629394531,14.1647071838,,0.0168806672497,-0.0437822078308,0.998021269169,0.0418534369576
1540963745873693477,,248,,1540963745,650126929,'',,,-17.516784668,280.83505249,14.2086400986,,0.0184691971499,-0.0432289790947,0.998050771806,0.0410464171608
1540963746341150048,,249,,1540963746,98757664,'',,,-19.3057460785,281.027130127,14.2454519272,,0.0200308090524,-0.043471669111,0.99803786451,0.0403659008139
1540963746824176254,,250,,1540963746,547626961,'',,,-21.0981121063,281.221221924,14.2934656143,,0.0190995857232,-0.0414739774714,0.99816676575,0.0397263543325
1540963747247534012,,251,,1540963746,995989836,'',,,-22.910282135,281.421203613,14.3329277039,,0.0197808745739,-0.0423568403346,0.998112655831,0.0398213591385
1540963747671973669,,252,,1540963747,445078039,'',,,-24.7422618866,281.621337891,14.3800134659,,0.0193082000688,-0.043813412433,0.99804283634,0.0402253298715
1540963748167391949,,253,,1540963747,893633298,'',,,-26.5581169128,281.813690186,14.4250793457,,0.0197336316795,-0.0448472565328,0.99797918609,0.040457991008
1540963748615182895,,254,,1540963748,342121534,'',,,-28.4274272919,282.009552002,14.4680299759,,0.0193504852865,-0.0495388919496,0.997706868584,0.0418617924747
1540963749011343277,,255,,1540963748,790883330,'',,,-30.2915306091,282.214935303,14.5211954117,,0.0177766454786,-0.0542820923423,0.997469486807,0.0423326705161
1540963749455097284,,256,,1540963749,239247322,'',,,-32.0857925415,282.366699219,14.5588712692,,0.0213175130166,-0.055907860909,0.997368300069,0.0409431922176
1540963749923190517,,257,,1540963749,672666553,'',,,-33.7384109497,282.555145264,14.6188364029,,0.0230356547776,-0.0543501205269,0.997442140658,0.0403062611469
1540963750494431379,,258,,1540963750,177112361,'',,,-35.5412902832,282.751037598,14.6740760803,,0.0231577774019,-0.054932496279,0.997401049063,0.0404630884421
1540963750958550156,,259,,1540963750,681812741,'',,,-37.2334671021,282.936401367,14.7391433716,,0.0221429843151,-0.052538229045,0.997513637939,0.0414238588222
1540963751605867166,,260,,1540963751,171366660,'',,,-38.9383544922,283.121459961,14.7895336151,,0.0246792030377,-0.0525644441101,0.997420119778,0.0422019125759
1540963751891667027,,261,,1540963751,675367341,'',,,-40.5747756958,283.313812256,14.8572282791,,0.0241914660685,-0.0505902914274,0.997471032989,0.0436679763164
1540963752437437766,,262,,1540963752,172416424,'',,,-42.1560668945,283.486907959,14.9199457169,,0.0237910933689,-0.0520891678078,0.997434342274,0.0429583937891
1540963752934635367,,263,,1540963752,717566662,'',,,-43.8457069397,283.670837402,14.9773721695,,0.0257327412334,-0.0491693661989,0.997606885939,0.0412396237132
1540963753462781774,,264,,1540963753,222326871,'',,,-45.3426132202,283.842376709,15.0326633453,,0.0236133161878,-0.0502103966644,0.9976757203,0.0395538169187
1540963754002184169,,265,,1540963753,766998111,'',,,-46.9365997314,284.020568848,15.0892181396,,0.0223500283926,-0.0484120293202,0.997840740618,0.0383483041532
1540963754445717583,,266,,1540963754,271919552,'',,,-48.2497940063,284.142089844,15.1291122437,,0.0232411468224,-0.0486950107561,0.997816854349,0.0380811984299
1540963755128147003,,267,,1540963754,760850078,'',,,-49.4803962708,284.271636963,15.1713495255,,0.0238748515896,-0.0453154548918,0.997966068826,0.0379502962305
1540963755594561573,,268,,1540963755,313735585,'',,,-50.7555732727,284.403839111,15.2126121521,,0.0249670048436,-0.0466969451985,0.997838888874,0.038904860403
1540963756203992326,,269,,1540963755,858864082,'',,,-51.9790763855,284.5362854,15.2519779205,,0.0290330451197,-0.0462329748652,0.99771229759,0.039871979132
1540963756594620855,,270,,1540963756,403405845,'',,,-53.1468925476,284.67098999,15.296125412,,0.0338853723198,-0.0467401041709,0.997344626597,0.0443939392969
1540963757185891648,,271,,1540963756,908089883,'',,,-54.1570854187,284.784637451,15.3431310654,,0.0305504175438,-0.0484972661186,0.997056144591,0.0509286097382
1540963757774355757,,272,,1540963757,413114348,'',,,-55.1540489197,284.918945312,15.3999929428,,0.0199380344449,-0.0455901241103,0.997216478296,0.0555276929046
1540963758102235590,,273,,1540963757,958143466,'',,,-56.3013496399,285.087799072,15.4518156052,,0.0154647466998,-0.0437146947486,0.997323761503,0.0565259852082
1540963758630441708,,274,,1540963758,454642127,'',,,-57.4204978943,285.240264893,15.47108078,,0.0206242085513,-0.0472397425764,0.997176378607,0.0546107862024
1540963759314753016,,275,,1540963758,951873940,'',,,-58.6736717224,285.423248291,15.4967746735,,0.0269248598643,-0.0455843166691,0.997219018561,0.0524532350727
1540963759697990072,,276,,1540963759,503953071,'',,,-60.1815567017,285.615997314,15.5404729843,,0.0263406603161,-0.0467080026458,0.997325868203,0.0496553749091
1540963760190374941,,277,,1540963760,9436652,'',,,-61.6921386719,285.819641113,15.6047048569,,0.0262757247044,-0.0448671896213,0.997547771378,0.0468503159594
1540963760764367576,,278,,1540963760,555134470,'',,,-63.4591789246,286.018127441,15.6654577255,,0.0266129533057,-0.0451672247287,0.997658163023,0.04393006992
1540963761192525165,,279,,1540963761,43169242,'',,,-65.1951904297,286.197967529,15.7437076569,,0.0258753201027,-0.043635500466,0.997883650838,0.0406770884326
1540963761704821862,,280,,1540963761,548011901,'',,,-66.9196395874,286.418518066,15.8095607758,,0.0265145257987,-0.0439157787461,0.997970608001,0.0377230272638
1540963762193690050,,281,,1540963762,44581165,'',,,-68.5972900391,286.596343994,15.8720054626,,0.0284052774172,-0.0448978650768,0.997929097671,0.0362605596932
1540963762814157399,,282,,1540963762,541724045,'',,,-70.2916564941,286.76651001,15.9437932968,,0.0274637737366,-0.0450496951487,0.997937146032,0.0365752495592
1540963763220669067,,283,,1540963763,38176449,'',,,-71.9891967773,286.917388916,16.0162258148,,0.0236155079719,-0.0476412417615,0.998000761635,0.034162920317
1540963763684935876,,284,,1540963763,535583280,'',,,-73.7029190063,287.091003418,16.0839195251,,0.0246148408378,-0.047554257573,0.998096173706,0.0306061689546
1540963764222047475,,285,,1540963764,47529355,'',,,-75.3853378296,287.218505859,16.1412754059,,0.0233620570032,-0.0446574574874,0.998514890582,0.0206870120092
1540963764854815139,,286,,1540963764,592375248,'',,,-77.1789855957,287.290679932,16.1873378754,,0.0228387250523,-0.0424171246494,0.998658629154,-0.0189765101312
1540963765300368543,,287,,1540963765,138119219,'',,,-78.907081604,287.121765137,16.2369098663,,0.0209189466515,-0.0339597358111,0.994022632184,-0.101627458122
1540963766431961330,,288,,1540963765,633972776,'',,,-80.2665634155,286.748199463,16.239572525,,0.016579541692,-0.0357819614071,0.978230669024,-0.203738741551
1540963766705883292,,289,,1540963766,387255386,'',,,-81.9676971436,285.694580078,16.2256031036,,0.0144577093914,-0.030497542975,0.924038465882,-0.380806705281
1540963767212245447,,290,,1540963766,980303779,'',,,-82.9644470215,284.464324951,16.1718387604,,-0.00989764428852,0.0344352782878,-0.8570542335,0.513978873642
1540963767910300606,,291,,1540963767,525426146,'',,,-83.5436706543,283.165557861,16.1193141937,,-0.005402301557,0.0388391516881,-0.795625685974,0.604518045541
1540963768229130200,,292,,1540963768,29957997,'',,,-83.8518218994,281.85925293,16.0397987366,,-0.00341216722484,0.0429821400943,-0.754435212555,0.654956803663
1540963768796039891,,293,,1540963768,575227468,'',,,-84.0640563965,280.391815186,15.9378185272,,-0.00149760453263,0.0432474525364,-0.727768805912,0.684455967467
1540963769353269822,,294,,1540963769,81448298,'',,,-84.1892776489,279.022888184,15.8347606659,,-0.00273889538987,0.0400721603776,-0.721025509541,0.69174339539
1540963769840180050,,295,,1540963769,625224459,'',,,-84.3238372803,277.511627197,15.7236557007,,-0.00303272017149,0.0379567862102,-0.720386391132,0.692526946245
1540963770324461943,,296,,1540963770,121825116,'',,,-84.414680481,276.121887207,15.6285858154,,-0.000916931534062,0.0354999746388,-0.723236098886,0.689687227834
1540963770902731475,,297,,1540963770,682544951,'',,,-84.5544509888,274.5496521,15.5259094238,,0.000606703238643,0.0336057113295,-0.727153014134,0.685652076089
1540963771412760824,,298,,1540963771,227731811,'',,,-84.7028579712,272.884796143,15.4049320221,,-0.000271206702552,0.024286153376,-0.735033190748,0.677595976404
1540963772047729256,,299,,1540963771,773116884,'',,,-84.9204406738,271.257629395,15.2961130142,,-0.00548239731026,0.0180680907265,-0.740314489996,0.671995501469
1540963772513067559,,300,,1540963772,317823489,'',,,-85.1150817871,269.674957275,15.240477562,,-0.0057418334949,0.0211238955839,-0.726380636241,0.686943955052
1540963773024501743,,301,,1540963772,814050102,'',,,-85.1988449097,268.319091797,15.1879425049,,-0.00421316532265,0.0216648621396,-0.693474231084,0.72014328294
1540963773635612907,,302,,1540963773,311701554,'',,,-85.1159973145,267.029022217,15.1297779083,,-0.0017629268261,0.0216963196544,-0.637776560044,0.769913750194
1540963774034015574,,303,,1540963773,856984815,'',,,-84.7801208496,265.742889404,15.0622224808,,0.00141871830293,0.0229678232985,-0.557849620673,0.829622960679
1540963774725677595,,304,,1540963774,352286080,'',,,-84.2727279663,264.708221436,14.9949159622,,0.00902690277185,0.0174247480005,-0.476951422644,0.878710559676
1540963775143481653,,305,,1540963774,912977098,'',,,-83.5312347412,263.697937012,14.9109544754,,0.0100247117371,0.0125369266092,-0.382836922452,0.923676476321
1540963775693335998,,306,,1540963775,458378579,'',,,-82.5977554321,262.872680664,14.8426599503,,0.0185334000157,0.00786034780579,-0.280930488923,0.959516948425
1540963776270774071,,307,,1540963775,954710177,'',,,-81.5036392212,262.290588379,14.779042244,,0.0221468775563,0.00889723393414,-0.191031983503,0.981293601082
1540963776723865727,,308,,1540963776,452013673,'',,,-80.2919692993,261.859893799,14.7264766693,,0.025041933403,0.00857260006712,-0.113219681799,0.993217369307
1540963777190162332,,309,,1540963777,4183549,'',,,-78.8559341431,261.608459473,14.6621751785,,0.0248843940975,0.00728198323657,-0.0443970571771,0.99867745204
1540963777814116549,,310,,1540963777,509088837,'',,,-77.4599151611,261.518035889,14.6119480133,,0.0235931130795,0.00671997598837,-0.00896229506685,0.999658891496
1540963778280130531,,311,,1540963778,54231956,'',,,-75.8205108643,261.46875,14.5528640747,,0.0216617372694,0.005948684914,0.00612156452766,0.999728911133
1540963778885866778,,312,,1540963778,550717405,'',,,-74.2136230469,261.462860107,14.5022315979,,0.0211949390847,0.00537417212066,0.00804432959196,0.999728553408
1540963779226995625,,313,,1540963779,48329812,'',,,-72.4780502319,261.434020996,14.4482345581,,0.0202930397672,0.00553877165779,0.00701524441489,0.999754122964
1540963779872471400,,314,,1540963779,497572973,'',,,-70.83934021,261.410797119,14.3937864304,,0.0181598162707,0.00560636501752,0.0060870446145,0.999800848502
1540963780174111171,,315,,1540963779,945838972,'',,,-69.1005630493,261.375549316,14.3325824738,,0.0160867792557,0.00541276660099,0.00352726657508,0.999849725399
1540963780644801018,,316,,1540963780,395248356,'',,,-67.3092269897,261.333740234,14.2733373642,,0.0146709709942,0.00627143178156,-0.00118973443658,0.999872013187
1540963780970630298,,317,,1540963780,794268179,'',,,-65.65599823,261.278381348,14.2152824402,,0.0133269631876,0.00639779863616,-0.00494047361004,0.999878525807
1540963781373814198,,318,,1540963781,195927734,'',,,-63.9614105225,261.211181641,14.1497812271,,0.013133866435,0.00576319039092,-0.00681037483874,0.999873943132
1540963781779594697,,319,,1540963781,587823046,'',,,-62.1685447693,261.127105713,14.0915555954,,0.0124838602819,0.0063168512898,-0.00841320856419,0.999866730035
1540963782182793984,,320,,1540963781,996516981,'',,,-60.3872108459,261.052337646,14.0272102356,,0.0125871645516,0.00702999999953,-0.00907766457708,0.999854867059
1540963782574609961,,321,,1540963782,388731074,'',,,-58.5949745178,260.942962646,13.9664344788,,0.0122059434268,0.00599854300405,-0.00999586322923,0.999857549654
1540963782969669393,,322,,1540963782,781901820,'',,,-56.7651939392,260.861999512,13.8877801895,,0.0127825794742,0.00600860908709,-0.0109709138758,0.999840060497
1540963783392918272,,323,,1540963783,182990007,'',,,-54.9592552185,260.766571045,13.8264818192,,0.0139599272522,0.00614383136313,-0.0118924733414,0.999812950582
1540963783804131797,,324,,1540963783,582573726,'',,,-53.1480407715,260.671142578,13.7682342529,,0.0152189473272,0.00550865715036,-0.0125556087344,0.999790177088
1540963784249667283,,325,,1540963783,984450460,'',,,-51.2827758789,260.582366943,13.7052726746,,0.0158650368869,0.0052500280977,-0.0128369607695,0.999777948045
1540963784551524520,,326,,1540963784,336326633,'',,,-49.6456604004,260.492645264,13.6566953659,,0.0162852151641,0.00513415073738,-0.0138406036094,0.99975840064
1540963785142944350,,327,,1540963784,688549172,'',,,-48.0088157654,260.390472412,13.6042356491,,0.0161550862571,0.00521022090803,-0.0168645334429,0.999713670448
1540963785407723189,,328,,1540963785,74904429,'',,,-46.2514076233,260.274169922,13.548409462,,0.0173492798808,0.0042720033953,-0.0213182014088,0.999613046285
1540963785791619763,,329,,1540963785,475107318,'',,,-44.4902496338,260.142883301,13.492726326,,0.0170338653621,0.00409183408077,-0.0252533938112,0.999527573751
1540963786184148557,,330,,1540963785,876025039,'',,,-42.7434921265,260.000823975,13.4379110336,,0.0177600744884,0.00462305979833,-0.0261293826954,0.999490093823
1540963786548204461,,331,,1540963786,275386052,'',,,-41.0731430054,259.872161865,13.3875961304,,0.01883778918,0.00463861407541,-0.0236500977313,0.999532053656
1540963787173121603,,332,,1540963786,724132539,'',,,-39.277759552,259.754333496,13.3354053497,,0.0201194970853,0.00377929300477,-0.0143215168975,0.999687846459
1540963787454819078,,333,,1540963787,165340678,'',,,-37.5203170776,259.696929932,13.2938098907,,0.0232199905884,0.00352931185826,0.0130370324084,0.999639140525
1540963787943312257,,334,,1540963787,614766240,'',,,-35.8513793945,259.775909424,13.2492961884,,0.0260080545344,0.00210415037884,0.0588804681477,0.997923975953
1540963788373714074,,335,,1540963788,119388466,'',,,-34.1302070618,260.034576416,13.2177152634,,0.0267377342881,0.00107167166633,0.131843711332,0.990909271187
1540963789186109798,,336,,1540963788,615487087,'',,,-32.5997238159,260.553619385,13.206114769,,0.0299672951539,-0.00294204253744,0.225660319451,0.973740574604
1540963789612835718,,337,,1540963789,113450599,'',,,-31.2515907288,261.357391357,13.2106456757,,0.0311488999531,-0.00465264323999,0.328167256713,0.944094464299
1540963789878487083,,338,,1540963789,624739440,'',,,-30.0805587769,262.448852539,13.2366142273,,0.0331184418572,-0.00367555718267,0.431048860435,0.901713113749
1540963790618079126,,339,,1540963790,169775968,'',,,-29.0712985992,263.894805908,13.2751712799,,0.035053334737,-0.00744229558149,0.532954766918,0.84538456421
1540963791023787411,,340,,1540963790,715507348,'',,,-28.4433479309,265.531738281,13.332567215,,0.0364860238858,-0.0133039242112,0.612959406297,0.789159391139
1540963791571145103,,341,,1540963791,211535882,'',,,-28.0643577576,267.131896973,13.4000072479,,0.0352391285496,-0.0254558015027,0.658549736877,0.751280530866
1540963791913364541,,342,,1540963791,709754359,'',,,-27.8593006134,268.735961914,13.5008907318,,0.0367866436575,-0.0280163217816,0.675294029531,0.736097700709
1540963792556290042,,343,,1540963792,260954616,'',,,-27.6513786316,270.477081299,13.6236906052,,0.0366461791649,-0.028278235407,0.678770386787,0.732890266692
1540963793020437683,,344,,1540963792,806281771,'',,,-27.5005149841,272.189300537,13.7399177551,,0.0381170502043,-0.0268868098718,0.678122175484,0.733467445479
1540963793507159776,,345,,1540963793,311105074,'',,,-27.3499507904,273.667541504,13.8507404327,,0.0390891955813,-0.0247478774042,0.687229610884,0.724965547799
1540963794051204350,,346,,1540963793,856725446,'',,,-27.276550293,275.250793457,13.9554176331,,0.0352484149105,-0.0256222588892,0.713219944346,0.69958439682
1540963794695345222,,347,,1540963794,352360702,'',,,-27.3410968781,276.69519043,14.0579929352,,0.0372738774978,-0.0226452241997,0.751319514977,0.658495871872
1540963795102250939,,348,,1540963794,850144659,'',,,-27.5662307739,278.050292969,14.1434755325,,0.0380805709377,-0.0281538300159,0.803785032646,0.593031913298
1540963795647521026,,349,,1540963795,394871688,'',,,-28.0727558136,279.375091553,14.2366571426,,0.0390664238018,-0.0332561166728,0.863906654749,0.501032032415
1540963796175716011,,350,,1540963795,891168988,'',,,-28.7751979828,280.409393311,14.3409757614,,0.0337405648306,-0.0386850435969,0.91266745703,0.405466579852
1540963796758911989,,351,,1540963796,451512179,'',,,-29.7564945221,281.334228516,14.4308958054,,0.0299149510525,-0.0438732246049,0.954729582176,0.292697185349
1540963797224265933,,352,,1540963796,996628882,'',,,-31.0026111603,282.027099609,14.5104036331,,0.0279430478284,-0.0503610132411,0.982279333008,0.178354382493
1540963797862419220,,353,,1540963797,542054415,'',,,-32.489151001,282.464904785,14.5718870163,,0.0259040287059,-0.054805245847,0.994134442024,0.0895660290051
1540963798226139799,,354,,1540963798,38592183,'',,,-33.9263496399,282.67276001,14.6302175522,,0.0244179008617,-0.0528397557266,0.997584935913,0.0378951654302
1540963798730544178,,355,,1540963798,542793871,'',,,-35.4544677734,282.789672852,14.6752843857,,0.0231428181478,-0.0554831814872,0.998034288659,0.0177089373212
1540963799503445827,,356,,1540963799,47682917,'',,,-37.0067634583,282.862884521,14.7260522842,,0.021780247741,-0.0524467190856,0.998211610043,0.0186695760208
1540963799807211640,,357,,1540963799,594115522,'',,,-38.806678772,282.981689453,14.7763156891,,0.0247737058409,-0.0526190690187,0.998097442719,0.0204694561077
1540963800366634748,,358,,1540963800,89475742,'',,,-40.4895362854,283.110229492,14.8313274384,,0.0247913990811,-0.0514617505877,0.998084864481,0.0237417356873
1540963801249329250,,359,,1540963800,587553902,'',,,-42.2626647949,283.247802734,14.8971281052,,0.0245323389631,-0.0527234974575,0.997858906941,0.0299337451498
1540963801471919967,,360,,1540963800,634150226,'',,,-42.4413566589,283.261810303,14.9005527496,,0.0243690682405,-0.052784308266,0.99780877515,0.0315848357137
1540963801895774986,,361,,1540963801,388280004,'',,,-45.2858009338,283.554229736,14.999833107,,0.0256408151502,-0.0516113430888,0.997411462182,0.0430018083592
1540963802178165437,,362,,1540963801,836954189,'',,,-47.0888175964,283.795410156,15.0728330612,,0.0240188989859,-0.0477873401964,0.997415697615,0.0479724794296
1540963802420359722,,363,,1540963802,229336231,'',,,-48.7354202271,283.987060547,15.1250772476,,0.0253895046414,-0.0486255718686,0.997460545797,0.0454245843369
1540963803158079169,,364,,1540963802,638016020,'',,,-50.3947868347,284.175598145,15.183590889,,0.0257022457667,-0.0445938123583,0.997601628134,0.046279227133
1540963803403951417,,365,,1540963803,86387055,'',,,-52.2465934753,284.418426514,15.2499809265,,0.0300272537479,-0.0461654205766,0.997454517853,0.0452951194688
1540963803726891613,,366,,1540963803,535163238,'',,,-54.0505867004,284.623443604,15.3246440887,,0.0331786859707,-0.0481186079278,0.997249463881,0.0455771722419
1540963804173191731,,367,,1540963803,968550276,'',,,-55.8424072266,284.847839355,15.4198741913,,0.0136615204159,-0.0449085737017,0.99778591111,0.047115098259
1540963804562215559,,368,,1540963804,369636066,'',,,-57.4798164368,285.053894043,15.4675769806,,0.0205055165162,-0.0474065594788,0.99758790095,0.0463734996026
1540963805094391761,,369,,1540963804,769558959,'',,,-59.1629333496,285.265014648,15.4886884689,,0.0266474334812,-0.0451247049844,0.997619574761,0.0448201527946
1540963805356125453,,370,,1540963805,171208622,'',,,-60.8556251526,285.478057861,15.5477237701,,0.0258207907186,-0.0461957381246,0.997634220104,0.043877209073
1540963805931829894,,371,,1540963805,562740444,'',,,-62.5859794617,285.655487061,15.6180400848,,0.0265269834683,-0.045093772993,0.997790249494,0.0409569447916
1540963806174150541,,372,,1540963805,971127346,'',,,-64.3341522217,285.863494873,15.6806612015,,0.0253598821235,-0.0432557970917,0.997877849442,0.0415404231707
1540963806741484843,,373,,1540963806,364082542,'',,,-66.0899429321,286.060119629,15.7559394836,,0.026464935688,-0.0442920445606,0.997835648313,0.0407658032041
1540963806922690247,,374,,1540963806,772499896,'',,,-67.8747940063,286.258270264,15.8214502335,,0.0287167563662,-0.0428137146532,0.997826927121,0.0410334338439
