rosbagTimestamp,header,seq,stamp,secs,nsecs,frame_id,pose,position,x,y,z,orientation,x,y,z,w
1540963647121403457,,2,,1540963646,979151075,'',,,0.00885112863034,-0.00220055202954,-0.0177008826286,,-4.18290687495e-05,-0.000827118032898,0.000757326624394,0.99999935925
1540963647625011480,,3,,1540963647,524936952,'',,,0.00504753924906,-0.0108200777322,-0.010004369542,,9.31837796284e-05,-0.000862335638403,0.000249452581875,0.999999597669
1540963648135715837,,4,,1540963648,28635572,'',,,0.00644050864503,0.000643175502773,-0.0160138588399,,-0.000256276217213,-0.00108827599664,0.00023781889053,0.999999344349
1540963648668473726,,5,,1540963648,533642948,'',,,0.0555790662766,-2.76853952528e-05,-0.015380977653,,-0.000180948210911,-0.00222756737403,0.000282644858551,0.999997436997
1540963649224467471,,6,,1540963649,79226292,'',,,0.24105964601,-0.0114857126027,-0.0321325883269,,-0.000564300980967,-0.00305056325536,-0.000502840778902,0.999995045352
1540963649738573694,,7,,1540963649,624490135,'',,,0.614423692226,-0.0200083516538,-0.0320179052651,,-0.00048556223206,-0.00344041609898,-0.00476130986556,0.999982632546
1540963650276145228,,8,,1540963650,120351104,'',,,1.09908032417,-0.0444269627333,-0.0453035496175,,-0.000535054383876,-0.00335664932427,-0.010990281544,0.999933821753
1540963650771465889,,9,,1540963650,665289598,'',,,1.82727611065,-0.0878880769014,-0.0568420365453,,-0.000314146934537,-0.0040685284165,-0.020065481749,0.999790348487
1540963651292255169,,10,,1540963651,169302261,'',,,2.56748652458,-0.147639140487,-0.0577142722905,,0.00140391174718,-0.00263465045119,-0.0281256845554,0.999599935555
1540963651828369239,,11,,1540963651,714689840,'',,,3.43428230286,-0.225903972983,-0.0765615776181,,0.00128103810795,0.00117513467505,-0.036754634362,0.999322788588
1540963652334283863,,12,,1540963652,219964421,'',,,4.2768740654,-0.315619498491,-0.0908158421516,,0.00154954520407,0.00465932233016,-0.0416351077135,0.999120810081
1540963652879282845,,13,,1540963652,765447363,'',,,5.25986289978,-0.430781573057,-0.103202186525,,0.00431446597283,0.00763071306789,-0.0446643068061,0.998963586351
1540963653434725845,,14,,1540963653,310596020,'',,,6.26638793945,-0.544146955013,-0.1436021626,,0.00431611105721,0.00580181653639,-0.0410570385903,0.999130638539
1540963653962865480,,15,,1540963653,855714933,'',,,7.29130268097,-0.654357433319,-0.183020174503,,0.00601191601803,0.00369144057497,-0.0334028873738,0.999417075488
1540963654494406210,,16,,1540963654,367249868,'',,,8.28968334198,-0.730046033859,-0.198423147202,,0.0027318446198,0.00304006878855,-0.0176484580057,0.999835909851
1540963655053336229,,17,,1540963654,912676259,'',,,9.38461971283,-0.783985316753,-0.232107684016,,0.0182577435818,0.0080345389255,0.00641319042126,0.999780459445
1540963655567401599,,18,,1540963655,458696172,'',,,10.6088256836,-0.77428996563,-0.262661516666,,0.0211188753436,0.0290344799294,0.0346772839275,0.998753463646
1540963656124250526,,19,,1540963656,4061733,'',,,12.0039539337,-0.675720274448,-0.311950445175,,0.0281981217945,0.048306569212,0.0753384620102,0.995587987218
1540963656628816496,,20,,1540963656,498972880,'',,,13.318195343,-0.446036934853,-0.430159032345,,0.0109901973337,0.0217662077973,0.128627188264,0.991393214411
1540963657163451867,,21,,1540963657,59371607,'',,,14.7788419724,0.00187192333397,-0.603735327721,,0.0160013558887,-0.0096697673283,0.197940235397,0.980035762244
1540963657742606674,,22,,1540963657,604528900,'',,,16.0765457153,0.641626238823,-0.610759735107,,0.00159897056032,-0.0178536152822,0.282769349364,0.959020431369
1540963658284180141,,23,,1540963658,149996954,'',,,17.2102355957,1.45110845566,-0.590443193913,,0.00131919932518,-0.0141042658257,0.369573778898,0.929093403487
1540963658846506179,,24,,1540963658,695356321,'',,,18.1506824493,2.43738555908,-0.574738442898,,0.00194951086205,-0.0140791154793,0.444080217261,0.895874297884
1540963659382344142,,25,,1540963659,240131486,'',,,18.9573402405,3.62040042877,-0.575693309307,,0.00308587795856,-0.0140622398056,0.507772272261,0.861371037113
1540963659855861267,,26,,1540963659,752062304,'',,,19.587064743,4.78502464294,-0.574031531811,,0.00244005881329,-0.0138301311812,0.547187913073,0.836891961891
1540963660432422641,,27,,1540963660,297563501,'',,,20.2169132233,6.21037483215,-0.557103335857,,0.00211223766022,-0.0142122241936,0.571363552395,0.820571300009
1540963660916897042,,28,,1540963660,793256584,'',,,20.7571086884,7.58092069626,-0.548880755901,,0.000714641238331,-0.014991152344,0.580995817981,0.813768144536
1540963661401219101,,29,,1540963661,291209167,'',,,21.3221588135,9.0917930603,-0.533243715763,,0.000526872301095,-0.0160988650758,0.585778769715,0.810310913118
1540963661888746446,,30,,1540963661,788569363,'',,,21.87981987,10.6599140167,-0.527980446815,,-0.00116689139498,-0.0179764576001,0.587917546273,0.808720228651
1540963662375975239,,31,,1540963662,285053175,'',,,22.4781646729,12.3309907913,-0.522961139679,,-0.00270531419241,-0.0179903520541,0.585992408411,0.810112301252
1540963662822902702,,32,,1540963662,733312812,'',,,23.0366020203,13.9088106155,-0.518067121506,,-0.00525678271665,-0.0207078666787,0.587545249151,0.808909234868
1540963663306396809,,33,,1540963663,183417694,'',,,23.6502246857,15.6253814697,-0.507671952248,,-0.00735789914253,-0.0243287048527,0.586918388315,0.809247061659
1540963663716793795,,34,,1540963663,581689706,'',,,24.2007770538,17.160068512,-0.493282258511,,-0.0060588593453,-0.0240135395016,0.586900148486,0.809280463261
1540963664071115146,,35,,1540963663,983919684,'',,,24.79621315,18.7962207794,-0.483056992292,,-0.00854777487355,-0.0244978073245,0.587405970173,0.808876402836
1540963664535529179,,36,,1540963664,382871535,'',,,25.3992385864,20.5082244873,-0.465243130922,,-0.0081679480366,-0.0218504856312,0.58758014673,0.808829669352
1540963664908996599,,37,,1540963664,784268937,'',,,26.0262889862,22.2341117859,-0.453594923019,,-0.00909872634058,-0.0223347934463,0.587561415859,0.808820126123
1540963665232896963,,38,,1540963665,136362029,'',,,26.5799674988,23.8082370758,-0.44732683897,,-0.00809828337975,-0.0234820210198,0.58716611761,0.809085286513
1540963665622486326,,39,,1540963665,528735498,'',,,27.2142162323,25.5950031281,-0.4277767241,,-0.00738476244715,-0.0240854702926,0.587433834742,0.808879990523
1540963665972555631,,40,,1540963665,875143441,'',,,27.7757472992,27.1929569244,-0.416854500771,,-0.00964782304385,-0.026538628114,0.58793361167,0.808416167399
1540963666322883987,,41,,1540963666,226320686,'',,,28.3371982574,28.8050079346,-0.395487189293,,-0.010162011773,-0.0285267584247,0.586974574064,0.809038809138
1540963666713810741,,42,,1540963666,578453791,'',,,28.8967266083,30.4208297729,-0.37403845787,,-0.0130459376375,-0.0316358204813,0.585026764435,0.810291741904
1540963667015998631,,43,,1540963666,915355156,'',,,29.5188865662,32.0503997803,-0.347682148218,,-0.0114855592606,-0.0304815063424,0.582981580443,0.811832144328
1540963667372430226,,44,,1540963667,267965552,'',,,30.0983047485,33.6822471619,-0.313444644213,,-0.0085382339203,-0.0320958576133,0.582139625665,0.812410248788
1540963667724422044,,45,,1540963667,620001720,'',,,30.7159729004,35.3190116882,-0.273287892342,,-0.00434493260058,-0.0303909427795,0.580953538741,0.813357519665
1540963668090187460,,46,,1540963667,964853368,'',,,31.3230934143,36.9511413574,-0.22483406961,,-0.000247535041399,-0.0261654139936,0.580639310432,0.81374030629
1540963668432691090,,47,,1540963668,317154032,'',,,31.9410095215,38.5877571106,-0.183195158839,,0.00503774240132,-0.0209370232775,0.580842081337,0.813731374593
1540963668825675388,,48,,1540963668,662251891,'',,,32.5609588623,40.2366828918,-0.142109885812,,0.00821603680444,-0.0177419625739,0.580862863362,0.813766574339
1540963669138397089,,49,,1540963669,14757466,'',,,33.1712646484,41.8724517822,-0.106380306184,,0.0110041300715,-0.0121521652997,0.580822288069,0.813865266509
1540963669495729946,,50,,1540963669,366956911,'',,,33.8039245605,43.5020751953,-0.0817195028067,,0.0128331424422,-0.00972135842662,0.583177686863,0.812185061379
1540963669830818695,,51,,1540963669,719701453,'',,,34.4024620056,45.1013031006,-0.0608870536089,,0.0144740883667,-0.00924269120568,0.584381575076,0.811297269261
1540963670244711000,,52,,1540963670,111820687,'',,,35.0411186218,46.7942352295,-0.0433516800404,,0.0183285816475,-0.0116426592058,0.585678054106,0.810252873978
1540963670679238586,,53,,1540963670,521227635,'',,,35.6002464294,48.3941192627,-0.0067560467869,,0.0210941730336,-0.0105292016584,0.587366855672,0.808977353974
1540963671083809629,,54,,1540963670,969862441,'',,,36.2109909058,50.0353775024,0.040106896311,,0.0219145564692,-0.00809912499575,0.589700725142,0.807283856241
1540963671517410418,,55,,1540963671,418576552,'',,,36.773815155,51.5863265991,0.0699736922979,,0.0234318194325,-0.00668844867429,0.591764214153,0.805742724653
1540963672021724173,,56,,1540963671,907542341,'',,,37.3198547363,53.2309989929,0.109462544322,,0.0226791929965,-0.00646109683183,0.591795431613,0.805743177749
1540963672542557226,,57,,1540963672,412791226,'',,,37.8528442383,54.7729530334,0.143209531903,,0.0207092211903,-0.00891954605498,0.589803845962,0.807231668068
1540963673072008176,,58,,1540963672,957310405,'',,,38.4968605042,56.4401245117,0.173657208681,,0.0183242714737,-0.010463497385,0.572176258239,0.81985916145
1540963673629529687,,59,,1540963673,502831354,'',,,39.2348937988,58.0863838196,0.20356926322,,0.0180145280351,-0.0111587282475,0.539336799341,0.841823488952
1540963674103524967,,60,,1540963673,999058718,'',,,40.0526390076,59.5125083923,0.222449272871,,0.0158920137343,-0.00790912581674,0.497450914188,0.8673104809
1540963674661943929,,61,,1540963674,496945663,'',,,41.0320587158,60.9231529236,0.245619595051,,0.014380458473,-0.00557638275223,0.448256783232,0.893771752846
1540963675177811699,,62,,1540963674,992693572,'',,,42.2338981628,62.2315292358,0.245248898864,,0.0191289310844,-0.00477925284559,0.388431384419,0.921266694532
1540963675570997538,,63,,1540963675,441785034,'',,,43.4884147644,63.3104057312,0.250445604324,,0.0158130277344,-0.00794850843511,0.329555259991,0.943970397452
1540963675993932361,,64,,1540963675,890853102,'',,,44.8928909302,64.2610244751,0.245085626841,,0.0153129099691,-0.00962543716581,0.273569119572,0.961682271382
1540963676493961672,,65,,1540963676,338996612,'',,,46.4655036926,65.040977478,0.251579940319,,0.00985164036501,-0.0101269204853,0.216407329657,0.976200914199
1540963676947827368,,66,,1540963676,787472112,'',,,48.0959358215,65.6357727051,0.257918298244,,0.00441868795395,-0.0107768598821,0.159096997663,0.987194239988
1540963677365569883,,67,,1540963677,236590267,'',,,49.77942276,66.0515213013,0.252252817154,,0.00287697972676,-0.00923173954276,0.106727575113,0.994241278449
1540963677797535503,,68,,1540963677,684985406,'',,,51.5012817383,66.298866272,0.257094740868,,0.0029526496885,-0.00949539718579,0.0638881612697,0.997907520576
1540963678264559854,,69,,1540963678,133426824,'',,,53.141872406,66.4130706787,0.255249381065,,0.00383122288496,-0.00880104776328,0.0312931501705,0.999464174602
1540963678797648668,,70,,1540963678,631579385,'',,,54.9508895874,66.4151229858,0.256477475166,,0.0071839755169,-0.00707508998472,0.00801739210162,0.999917034343
1540963679282250750,,71,,1540963679,142817392,'',,,56.6460914612,66.3866195679,0.251354813576,,0.0068126150395,-0.0241945770504,-0.000720423323278,0.999683806975
1540963679836930954,,72,,1540963679,688265310,'',,,58.4570159912,66.3283996582,0.24110019207,,0.00813316966442,-0.0221918510266,0.00129012846915,0.999719804013
1540963680373429715,,73,,1540963680,233390387,'',,,60.1194343567,66.320022583,0.304751217365,,0.0116514570154,-0.00187934472408,0.0145109341072,0.999825052515
1540963680848017306,,74,,1540963680,729964022,'',,,61.6575889587,66.3477706909,0.31116065383,,0.0014668164591,0.00645673822546,0.042160035619,0.999088922855
1540963681369237762,,75,,1540963681,274309213,'',,,63.3229141235,66.529548645,0.220274031162,,0.00851201643344,-0.00869126571149,0.0937207796204,0.995524194982
1540963681881062741,,76,,1540963681,778700574,'',,,64.8178634644,66.8609542847,0.223036140203,,0.00466154901619,-0.00970712434588,0.157529186314,0.987455618742
1540963682387078011,,77,,1540963682,283845198,'',,,66.2143936157,67.391204834,0.219906061888,,0.00661608693024,-0.0128353966332,0.225295696079,0.974183411864
1540963682932576145,,78,,1540963682,828566889,'',,,67.7384185791,68.1615829468,0.240283757448,,0.0109956609113,-0.0153420428311,0.292317872868,0.956134929154
1540963683487321504,,79,,1540963683,374260731,'',,,69.1051940918,69.1534347534,0.255907744169,,0.0144017702459,-0.0213167246582,0.347933888757,0.937166051196
1540963684012370696,,80,,1540963683,870146710,'',,,70.2901153564,70.2194213867,0.289450973272,,0.0177824435006,-0.022714867808,0.386405591859,0.921877731707
1540963684558280962,,81,,1540963684,415595713,'',,,71.5512924194,71.4750213623,0.354163438082,,0.0172084765016,-0.0221445934054,0.422599783688,0.90588239087
1540963685054016156,,82,,1540963684,919860300,'',,,72.6620941162,72.8294143677,0.413765817881,,0.0143345795956,-0.0218332476534,0.446785614315,0.894259715617
1540963685547828519,,83,,1540963685,425336617,'',,,73.7655487061,74.2507095337,0.463547348976,,0.0123774814003,-0.021568125624,0.461945833555,0.886559476286
1540963685973073637,,84,,1540963685,873942000,'',,,74.7848739624,75.624130249,0.503170967102,,0.0117390792833,-0.0230528149003,0.4684338106,0.883119774403
1540963686440778691,,85,,1540963686,322297615,'',,,75.8300018311,77.1219100952,0.556559562683,,0.00988575338048,-0.02653220754,0.471213105963,0.881564828423
1540963686833041343,,86,,1540963686,714745691,'',,,76.7911987305,78.4710159302,0.61263948679,,0.00845804734391,-0.028241198297,0.473398153065,0.880355098535
1540963687278200712,,87,,1540963687,108574416,'',,,77.7812423706,79.9299850464,0.668127417564,,0.0118255131863,-0.0282875936119,0.474907181193,0.879501649728
1540963687641688110,,88,,1540963687,508919446,'',,,78.8172302246,81.3902282715,0.738663613796,,0.0205780741995,-0.027156689652,0.476713309453,0.878398239822
1540963688030175786,,89,,1540963687,909382974,'',,,79.827255249,82.8382339478,0.823897361755,,0.0278221120404,-0.0203068617148,0.478980319272,0.877149589638
1540963688446693395,,90,,1540963688,310428337,'',,,80.8737792969,84.3308258057,0.887553155422,,0.0286844493433,-0.0124055620379,0.482071247366,0.875574442788
1540963688833286485,,91,,1540963688,662425246,'',,,81.7804412842,85.7467803955,0.931969821453,,0.0277022651749,-0.0132558161734,0.4875233455,0.872569694086
1540963689116060323,,92,,1540963689,14653040,'',,,82.6845550537,87.1204605103,0.9703322649,,0.0285040109495,-0.0125492853763,0.493208289742,0.869353544751
1540963689500564554,,93,,1540963689,401324860,'',,,83.7121658325,88.7636260986,1.03122425079,,0.0279340177797,-0.0136202243189,0.499615717922,0.865689487327
1540963689851751582,,94,,1540963689,752665139,'',,,84.6100387573,90.1801681519,1.08425068855,,0.031182256766,-0.0121983768449,0.509889905252,0.859587768745
1540963690203318466,,95,,1540963690,105702429,'',,,85.3901596069,91.6515045166,1.126496315,,0.0308829767802,-0.012468723265,0.526549193085,0.849492036456
1540963690597624433,,96,,1540963690,457103984,'',,,86.1844558716,93.1504135132,1.18303275108,,0.0313224055558,-0.011286373271,0.54698447015,0.83648043675
1540963690961777492,,97,,1540963690,849943443,'',,,86.8960266113,94.8743209839,1.24592936039,,0.0300726931561,-0.00964876779035,0.57507650479,0.81748977654
1540963691291841737,,98,,1540963691,195708593,'',,,87.4754180908,96.4549865723,1.29389047623,,0.028503206882,-0.00866288200991,0.600010209417,0.799437470027
1540963691654742765,,99,,1540963691,548264470,'',,,87.9154815674,98.0344390869,1.34775090218,,0.0250343477195,-0.00704237011464,0.624267873295,0.780777390104
1540963692023978415,,100,,1540963691,899705418,'',,,88.2824325562,99.613861084,1.39167356491,,0.0175152183032,-0.0111499679367,0.645130463828,0.763790270221
1540963692412540676,,101,,1540963692,252555335,'',,,88.5618896484,101.230407715,1.42355322838,,0.011086618258,-0.0164759455236,0.659463086025,0.751474565092
1540963692836411813,,102,,1540963692,644497095,'',,,88.8487930298,103.037818909,1.46091151237,,0.00467625335357,-0.0248862222671,0.66503849,0.746379648974
1540963693190622270,,103,,1540963693,53870664,'',,,89.0965576172,104.807449341,1.50004673004,,0.00679461243015,-0.0299280541979,0.670045192486,0.741685651212
1540963693597911252,,104,,1540963693,446102523,'',,,89.2901535034,106.527259827,1.53694856167,,0.00870355882464,-0.0441487646517,0.674180335904,0.737194698542
1540963693976998149,,105,,1540963693,854537649,'',,,89.4857635498,108.228492737,1.6436316967,,-0.00789218888001,-0.024245287871,0.677792497734,0.734810971144
1540963694351764200,,106,,1540963694,241425924,'',,,89.671661377,109.929069519,1.68426036835,,-0.00391793613222,-0.0247282157596,0.681670592354,0.731230759062
1540963694751954418,,107,,1540963694,640444939,'',,,89.8411636353,111.62562561,1.67586135864,,0.00380730521987,-0.0292989538489,0.683045318439,0.729778163524
1540963695145791941,,108,,1540963695,42007017,'',,,90.0137329102,113.43157959,1.729413867,,0.00859120441318,-0.0323097166605,0.683517134857,0.729168440896
1540963695567684328,,109,,1540963695,441050936,'',,,90.1866378784,115.157165527,1.79671621323,,0.00878749653908,-0.0297221064406,0.681784946484,0.730895779476
1540963695956769009,,110,,1540963695,842098730,'',,,90.357673645,116.899276733,1.85300660133,,0.0102453985539,-0.0293670270072,0.678852514322,0.733615614511
1540963696345684284,,111,,1540963696,234417513,'',,,90.5478744507,118.620857239,1.90981781483,,0.0124065421224,-0.0297847938741,0.675987822966,0.736206100229
1540963696752979243,,112,,1540963696,643154855,'',,,90.7518310547,120.360084534,1.98694598675,,0.0166592811136,-0.02984490448,0.673073852216,0.738785035701
1540963697139902092,,113,,1540963697,35417564,'',,,90.9736480713,122.005256653,2.06244254112,,0.0195028824317,-0.0333110570377,0.67220765128,0.739355724558
1540963697575724220,,114,,1540963697,428327341,'',,,91.1768875122,123.719924927,2.14626836777,,0.0184836864837,-0.0361319023747,0.673605193623,0.73797622061
1540963698015211914,,115,,1540963697,830199101,'',,,91.4066314697,125.400535583,2.24471092224,,0.013806108875,-0.0357195728067,0.676470108916,0.735473789832
1540963698399847240,,116,,1540963698,229419464,'',,,91.6022262573,127.099639893,2.3366587162,,0.0161359540349,-0.0352335695402,0.677452854957,0.734544679894
1540963698773019593,,117,,1540963698,630636288,'',,,91.7762680054,128.79296875,2.42128753662,,0.015153003882,-0.0361714325878,0.678413729581,0.733632621761
1540963699175230276,,118,,1540963699,23636022,'',,,91.9410018921,130.46206665,2.51068425179,,0.0144276794643,-0.0343169728855,0.679637834022,0.732602629928
1540963699549467365,,119,,1540963699,431908750,'',,,92.1158447266,132.188613892,2.60000872612,,0.0129396813486,-0.0337200926974,0.681155235031,0.731247618001
1540963699960752909,,120,,1540963699,824080911,'',,,92.3064880371,133.970123291,2.68533277512,,0.0127551379705,-0.0333878909466,0.682210755851,0.730281487089
1540963700365115324,,121,,1540963700,232750098,'',,,92.4170761108,135.660629272,2.76809859276,,0.0130722266482,-0.0326518339206,0.682605521925,0.729940159428
1540963700800916081,,122,,1540963700,681633991,'',,,92.5810317993,137.552200317,2.85593819618,,0.0174139415362,-0.0322036045873,0.683213396628,0.729300438015
1540963701244581195,,123,,1540963701,129963733,'',,,92.7689590454,139.406021118,2.9480471611,,0.0173020897492,-0.0310629518989,0.685039190804,0.727637955646
1540963701711850784,,124,,1540963701,578702513,'',,,92.9062423706,141.123535156,3.03377699852,,0.0209330085146,-0.0315257922005,0.684573995449,0.727960433162
1540963702154744052,,125,,1540963702,27364765,'',,,93.1036911011,142.740097046,3.12379455566,,0.0182479539325,-0.031464741194,0.683783148944,0.728778162841
1540963702662641720,,126,,1540963702,516500602,'',,,93.2705230713,144.446853638,3.21416902542,,0.0213187382039,-0.0318954948559,0.682257871615,0.730104355522
1540963703151959544,,127,,1540963703,21767120,'',,,93.4691848755,146.083343506,3.29996943474,,0.0231314380155,-0.0337287699343,0.679468259987,0.732564118878
1540963703680888016,,128,,1540963703,566724521,'',,,93.6600265503,147.808990479,3.40428376198,,0.0242030276654,-0.0347724796127,0.677043914198,0.734722128964
1540963704203876198,,129,,1540963704,63394230,'',,,93.8174285889,149.515228271,3.50905108452,,0.0246353712564,-0.0339954088969,0.673990150045,0.737546404949
1540963704708433289,,130,,1540963704,560655932,'',,,94.0677947998,151.256317139,3.61105680466,,0.0241603298051,-0.0344935543317,0.67143322091,0.739867478033
1540963705183045396,,131,,1540963705,57345798,'',,,94.2603225708,152.935775757,3.72056484222,,0.0203765990812,-0.0350586568598,0.672514748927,0.738971995101
1540963705631516392,,132,,1540963705,505567114,'',,,94.4429931641,154.564086914,3.81818175316,,0.0145838640135,-0.03716470106,0.671779564225,0.739674441956
1540963706085006270,,133,,1540963705,954743039,'',,,94.6254196167,156.238037109,3.90684747696,,0.0166391007146,-0.0413563781608,0.670941803531,0.740168851655
1540963706540618739,,134,,1540963706,403114755,'',,,94.8440170288,157.991149902,4.01464176178,,0.0140266723912,-0.0418276182467,0.671513677448,0.739677687903
1540963706963974464,,135,,1540963706,851656057,'',,,95.0556945801,159.764968872,4.12474107742,,0.0126162416646,-0.0411046320519,0.674149923332,0.737341921542
1540963707479599271,,136,,1540963707,252822391,'',,,95.2311935425,161.4087677,4.21934461594,,0.012818948388,-0.0404602399285,0.677058281591,0.734704513128
1540963707849322575,,137,,1540963707,645492931,'',,,95.4162445068,163.067184448,4.31063175201,,0.0169859109967,-0.0413824200532,0.677979125524,0.733718777982
1540963708223478032,,138,,1540963708,53894760,'',,,95.6258926392,164.863861084,4.42193746567,,0.0169970590035,-0.040678258049,0.677830913211,0.733894818909
1540963708575745460,,139,,1540963708,446524249,'',,,95.8470840454,166.641708374,4.52878284454,,0.0164452012083,-0.0414538509994,0.676850589405,0.734768276473
1540963708929997644,,140,,1540963708,798803380,'',,,96.0228271484,168.250946045,4.62787771225,,0.017988514974,-0.0415462725118,0.676554123962,0.734999904416
1540963709333492646,,141,,1540963709,207022037,'',,,96.1860122681,170.113189697,4.75244188309,,0.0169741249352,-0.0423512612385,0.67614664556,0.735352934118
1540963709761981020,,142,,1540963709,592433110,'',,,96.4123916626,172.013244629,4.87686109543,,0.0142819547899,-0.0392858309512,0.676250608369,0.735484693769
1540963710165239594,,143,,1540963709,945129704,'',,,96.6015701294,173.678939819,4.97412061691,,0.00964530567961,-0.0407998099403,0.676526049568,0.73522434426
1540963710457769417,,144,,1540963710,297917741,'',,,96.7931213379,175.381164551,5.05822896957,,0.0102237152235,-0.0434760670554,0.675457978083,0.736044714087
1540963710864158284,,145,,1540963710,650011835,'',,,96.9869384766,177.1043396,5.15728759766,,0.010598669566,-0.0423823463853,0.675452166084,0.73610853847
1540963711172525308,,146,,1540963711,2278845,'',,,97.1819610596,178.871520996,5.25630617142,,0.0108361272192,-0.0426798147781,0.675003290641,0.736499569106
1540963711505527635,,147,,1540963711,339047022,'',,,97.4012451172,180.561172485,5.35004138947,,0.0170175176435,-0.0428314981779,0.674584666778,0.736757346858
1540963711839159704,,148,,1540963711,691084002,'',,,97.6314849854,182.333007812,5.45893669128,,0.0163460234451,-0.0447553600184,0.673466911847,0.737680204397
1540963712153541480,,149,,1540963712,35835834,'',,,97.8481903076,184.095657349,5.58441352844,,0.0174084957018,-0.0407590006641,0.671874824691,0.739337470879
1540963712496743312,,150,,1540963712,388134213,'',,,98.0495605469,185.865036011,5.69690418243,,0.015667593198,-0.0422217818919,0.671670857373,0.739479635109
1540963712895632994,,151,,1540963712,733260871,'',,,98.2885131836,187.632781982,5.80798244476,,0.0213258772115,-0.0428761633291,0.670493985596,0.740367912587
1540963713230469894,,152,,1540963713,85880359,'',,,98.4911804199,189.339767456,5.93072843552,,0.0219781653652,-0.0395166555827,0.670143508252,0.740852931668
1540963713576140720,,153,,1540963713,438807330,'',,,98.735206604,191.125610352,6.05514717102,,0.0207133660212,-0.0403621784961,0.669257229777,0.741644545267
1540963713900597574,,154,,1540963713,790787410,'',,,98.9621658325,192.867492676,6.17189836502,,0.0236970333641,-0.0417880784654,0.669804343458,0.740982042938
1540963714265050150,,155,,1540963714,128444324,'',,,99.1961517334,194.603668213,6.29710197449,,0.022827489422,-0.0416165313959,0.670345589648,0.74052938657
1540963714621233344,,156,,1540963714,479690356,'',,,99.3856430054,196.322998047,6.42196702957,,0.0261293757745,-0.0404985550166,0.671595434266,0.73934883681
1540963714959854058,,157,,1540963714,825396471,'',,,99.6143341064,198.030456543,6.54726219177,,0.0290291377064,-0.0424822003751,0.674786501814,0.73621717295
1540963715314532658,,158,,1540963715,177037693,'',,,99.7985839844,199.714599609,6.6810503006,,0.0366374966956,-0.0518041492531,0.679296583623,0.731115715115
1540963715674433672,,159,,1540963715,529118254,'',,,99.987159729,201.357681274,6.84556293488,,0.0176574526753,-0.0270872371834,0.686741168117,0.726182533835
1540963716014649618,,160,,1540963715,875504071,'',,,100.108627319,203.057022095,6.94958925247,,0.0307150389671,-0.0313918063694,0.698178486656,0.714575338978
1540963716329271726,,161,,1540963716,226962375,'',,,100.181472778,204.784606934,7.03699970245,,0.0365146989727,-0.0354125946779,0.716753513367,0.695468929193
1540963716761766811,,162,,1540963716,579530502,'',,,100.122138977,206.421096802,7.17495918274,,0.0363954450434,-0.0355259506082,0.744224315435,0.665990545131
1540963717066156200,,163,,1540963716,931583026,'',,,99.9511871338,208.082046509,7.30557346344,,0.033750065491,-0.0362911043712,0.770685683418,0.635285367194
1540963717420232622,,164,,1540963717,283942980,'',,,99.5965652466,209.753082275,7.43761825562,,0.0345154568521,-0.035722287463,0.796132499176,0.60308012326
1540963717869157391,,165,,1540963717,670076201,'',,,99.0835494995,211.559783936,7.57783842087,,0.0334945055309,-0.0345088085204,0.823734032317,0.564933209702
1540963718191824031,,166,,1540963718,21894312,'',,,98.4644012451,213.065704346,7.69744062424,,0.0307152317361,-0.0366243832126,0.844543222279,0.533349754098
1540963718520912445,,167,,1540963718,374775577,'',,,97.7399902344,214.577423096,7.81951189041,,0.0291686740837,-0.0375048701102,0.86078165585,0.506751911644
1540963718856486165,,168,,1540963718,726463805,'',,,96.9412994385,216.057830811,7.9265089035,,0.0286245092201,-0.0383075729509,0.874625117172,0.482435568658
1540963719251559843,,169,,1540963719,78708250,'',,,96.0561218262,217.483810425,8.03305721283,,0.027693772562,-0.0396492494934,0.887382636907,0.458489960592
1540963719644945045,,170,,1540963719,464111680,'',,,94.9416656494,219.066390991,8.15677165985,,0.0241536375719,-0.0419432176901,0.898666841841,0.43595324475
1540963720031815256,,171,,1540963719,817980268,'',,,93.9341659546,220.376876831,8.25735378265,,0.0238846039768,-0.0416770074415,0.90303114103,0.426880889682
1540963720324091871,,172,,1540963720,170218306,'',,,92.8436203003,221.74961853,8.34951400757,,0.0220064135766,-0.0424462395021,0.905628575001,0.421367914251
1540963720636569661,,173,,1540963720,522093138,'',,,91.7687454224,223.081375122,8.44612979889,,0.0225992651219,-0.0413509514961,0.908229515759,0.415810707287
1540963721006811653,,174,,1540963720,859116003,'',,,90.6491012573,224.451339722,8.53903865814,,0.0211996643522,-0.0432077489932,0.910037953953,0.411721479863
1540963721365134728,,175,,1540963721,211123127,'',,,89.5311431885,225.780639648,8.64403057098,,0.0212484651027,-0.0426576239835,0.911336886171,0.408893534355
1540963721723666314,,176,,1540963721,555726982,'',,,88.4239273071,227.082351685,8.73228263855,,0.0213545011299,-0.0429420465134,0.911541208405,0.408402485562
1540963722066547922,,177,,1540963721,908437097,'',,,87.2720336914,228.4715271,8.83678340912,,0.0232013426128,-0.0439718842995,0.911669263502,0.407905997817
1540963722421728681,,178,,1540963722,260341524,'',,,86.109588623,229.855484009,8.93341732025,,0.0243460328531,-0.0418761768031,0.911243828555,0.409008959432
1540963722764918256,,179,,1540963722,605662965,'',,,84.9277572632,231.241836548,9.04652881622,,0.024183376695,-0.0402346243812,0.91075432246,0.410271711712
1540963723109175071,,180,,1540963722,958370395,'',,,83.7393798828,232.666625977,9.14028739929,,0.0246124293748,-0.0406016624907,0.910230347069,0.411371426345
1540963723421407285,,181,,1540963723,311021667,'',,,82.5388793945,234.10055542,9.24947834015,,0.0239441936785,-0.0413265805517,0.909838960869,0.412203645771
1540963723821442392,,182,,1540963723,662826247,'',,,81.3784255981,235.522338867,9.35845375061,,0.0239556796848,-0.0442110152564,0.90933077957,0.413024215494
1540963724123780101,,183,,1540963723,999924358,'',,,80.191986084,236.962051392,9.47399044037,,0.0239872630882,-0.044488737508,0.90875722738,0.414253167936
1540963724422100637,,184,,1540963724,304019557,'',,,79.1696395874,238.212585449,9.56394577026,,0.0242774558751,-0.0441732428615,0.908541995581,0.414741832198
1540963724811069487,,185,,1540963724,656524007,'',,,77.9520721436,239.693862915,9.67791748047,,0.023895255398,-0.0458903336034,0.908765622756,0.414087140421
1540963725084943074,,186,,1540963724,952759992,'',,,76.9413070679,240.922363281,9.77801322937,,0.024205347988,-0.0466809673639,0.908284682027,0.415034836498
1540963725448595917,,187,,1540963725,298987626,'',,,75.7278366089,242.39050293,9.89843845367,,0.0237123611784,-0.0474755299267,0.907661342019,0.416334800869
1540963725732817906,,188,,1540963725,601811047,'',,,74.684715271,243.685394287,10.011302948,,0.0222240157262,-0.0491377053437,0.90719554343,0.417238275238
1540963726056221852,,189,,1540963725,907158653,'',,,73.6460342407,244.9662323,10.1194162369,,0.0228015708439,-0.0501753933868,0.906798451635,0.417946274257
1540963726392625019,,190,,1540963726,258709019,'',,,72.415184021,246.493942261,10.2379989624,,0.0232905363252,-0.0488643241778,0.907320475568,0.416940519078
1540963726735097303,,191,,1540963726,549144432,'',,,71.3572463989,247.793487549,10.3494701385,,0.022656833203,-0.0480011428272,0.907585147089,0.416499410295
1540963726948228027,,192,,1540963726,844546828,'',,,70.325592041,249.078491211,10.4511623383,,0.0234930768647,-0.0474240997076,0.90814513975,0.415296838488
1540963727261524239,,193,,1540963727,155939134,'',,,69.2543182373,250.373184204,10.5596218109,,0.0236387737811,-0.0454760425141,0.909269678761,0.413039645945
1540963727580564253,,194,,1540963727,444888986,'',,,68.193321228,251.679092407,10.6584291458,,0.0224417959138,-0.047185634659,0.910185563757,0.410891842957
1540963727873347867,,195,,1540963727,741248298,'',,,67.0953903198,252.982498169,10.7688913345,,0.0228384337372,-0.0469480103201,0.9106547419,0.40985634576
1540963728175624715,,196,,1540963728,38596176,'',,,65.9779205322,254.319320679,10.875412941,,0.0242570889925,-0.0478515114379,0.910829426095,0.409281787987
1540963728494502584,,197,,1540963728,342880259,'',,,64.8499526978,255.640014648,10.9893598557,,0.0250129096773,-0.0477336744917,0.91108166223,0.408688231476
1540963728806814142,,198,,1540963728,638600912,'',,,63.7205963135,256.95980835,11.0985412598,,0.0247970376274,-0.0461821527154,0.911096136698,0.408847335116
1540963729052071022,,199,,1540963728,935412977,'',,,62.606590271,258.311309814,11.1956501007,,0.0253666102456,-0.0459450604449,0.911449471385,0.408050760662
1540963729369810033,,200,,1540963729,240330311,'',,,61.4947166443,259.622375488,11.3101768494,,0.0238200314296,-0.0453955598477,0.91123764727,0.408678139598
1540963729652058143,,201,,1540963729,535728029,'',,,60.3623161316,260.971557617,11.4085607529,,0.0235525190235,-0.0465589740953,0.911160434905,0.408734881938
1540963729972904301,,202,,1540963729,832982463,'',,,59.243057251,262.293792725,11.5187168121,,0.0246302607033,-0.0471261632199,0.911274382784,0.408352137806
1540963730255195863,,203,,1540963730,137301033,'',,,58.0918769836,263.623809814,11.6305980682,,0.0247647330069,-0.046679324767,0.912362768031,0.40595803625
1540963730559890542,,204,,1540963730,433616758,'',,,56.9701347351,264.912658691,11.7456874847,,0.0256629797787,-0.0448550297399,0.914889206315,0.400383794062
1540963730842734656,,205,,1540963730,729822272,'',,,55.8566017151,266.18081665,11.849697113,,0.0238898247156,-0.042794453654,0.919268487418,0.390567992772
1540963731155373305,,206,,1540963731,36029286,'',,,54.7039489746,267.453857422,11.9589166641,,0.025175970535,-0.0442858253683,0.924823829267,0.37696923377
1540963731445420946,,207,,1540963731,330606353,'',,,53.504825592,268.680999756,12.0531864166,,0.0288059510066,-0.0417763484918,0.93258847497,0.357356535074
1540963731769978898,,208,,1540963731,628109125,'',,,52.2720184326,269.812927246,12.1555166245,,0.028541207866,-0.0391826945388,0.94244829652,0.330819167631
1540963732062357483,,209,,1540963731,932393528,'',,,50.9642829895,270.86114502,12.2511281967,,0.0306508513833,-0.0352081088006,0.95285818399,0.299803564955
1540963732349595720,,210,,1540963732,228045403,'',,,49.5991020203,271.774993896,12.3508386612,,0.0307691943612,-0.0328899333219,0.96360582791,0.26350577174
1540963732718860996,,211,,1540963732,580390176,'',,,47.9550704956,272.749572754,12.455862999,,0.0281834962601,-0.0345591192844,0.975057441597,0.217426615726
1540963733048592320,,212,,1540963732,927014305,'',,,46.24659729,273.513977051,12.548333168,,0.0269333507228,-0.0363495805789,0.984136666101,0.171546811514
1540963733414792259,,213,,1540963733,278877635,'',,,44.4231643677,274.160949707,12.6402387619,,0.0237816519307,-0.0387935132017,0.991244401038,0.123951768419
1540963733812733520,,214,,1540963733,630294932,'',,,42.6162528992,274.580078125,12.7048454285,,0.0232055959601,-0.0393108903571,0.995721246218,0.0803451574408
1540963734128686725,,215,,1540963733,982849703,'',,,40.8032035828,274.856750488,12.7624092102,,0.021797443886,-0.042526059858,0.997783954725,0.0462986004453
1540963734492391189,,216,,1540963734,319969002,'',,,38.9768333435,275.031890869,12.8102846146,,0.0206843845004,-0.0449650286746,0.998290172268,0.0310968245207
1540963734930333660,,217,,1540963734,672194109,'',,,37.1016273499,275.179229736,12.8608818054,,0.0209059287476,-0.0431452432322,0.998533201332,0.0251572912604
1540963735142095242,,218,,1540963735,17202968,'',,,35.2822914124,275.33795166,12.9030303955,,0.0214584744046,-0.0425293829645,0.998578245544,0.0239223481997
1540963735495223241,,219,,1540963735,328819127,'',,,33.7022514343,275.444061279,12.9491596222,,0.0210105008686,-0.0412632534658,0.998616058131,0.0249375301196
1540963735798777609,,220,,1540963735,666140903,'',,,31.9068813324,275.592346191,12.9931383133,,0.0213152145839,-0.041557007517,0.998480170865,0.0292580540652
1540963736155551624,,221,,1540963736,18063386,'',,,30.0635910034,275.758605957,13.0371332169,,0.0343447323729,-0.0418456342973,0.998047920122,0.0311405197323
1540963736480397112,,222,,1540963736,364255714,'',,,28.2725200653,275.917297363,13.1261768341,,0.0164900294696,-0.0408091958544,0.998382228342,0.0359945828815
1540963736797824374,,223,,1540963736,675652796,'',,,26.7184257507,276.084136963,13.1928768158,,0.00933404909643,-0.039089651368,0.998501161029,0.0371523254483
1540963737179006618,,224,,1540963737,12686675,'',,,24.8647441864,276.282501221,13.1631679535,,0.0305103987764,-0.0416136986727,0.997980261145,0.0370516750548
1540963737538883591,,225,,1540963737,364680022,'',,,23.0549507141,276.458221436,13.2462177277,,0.0247862799649,-0.0400996226074,0.998180305833,0.0375994284045
1540963737888570162,,226,,1540963737,709287750,'',,,21.2280330658,276.683776855,13.3110227585,,0.0215902769467,-0.0385964800792,0.998312151567,0.0376430722385
1540963738234702538,,227,,1540963738,21879568,'',,,19.6406154633,276.835144043,13.3592586517,,0.0200980817905,-0.0363862713452,0.998414839605,0.0379460586267
1540963738486857971,,228,,1540963738,358395938,'',,,17.8618602753,277.037200928,13.4050912857,,0.017258256286,-0.0387091741302,0.998360653578,0.0384671737053
1540963738810376962,,229,,1540963738,710974563,'',,,15.9829015732,277.243041992,13.4414348602,,0.0210685218663,-0.0347697706529,0.99841765293,0.0388504305236
1540963739189444326,,230,,1540963739,56550883,'',,,14.1539106369,277.468780518,13.4893465042,,0.0194185205301,-0.0331071940852,0.99846882868,0.0398350526769
1540963739481704852,,231,,1540963739,367952137,'',,,12.5745325089,277.647979736,13.5336179733,,0.0167773758137,-0.0310795119488,0.998544505479,0.040760483142
1540963739830922868,,232,,1540963739,705775684,'',,,10.7848596573,277.83203125,13.5681009293,,0.0149848077231,-0.0344694279706,0.998481693096,0.0402694232926
1540963740163808309,,233,,1540963740,57300922,'',,,8.94277763367,278.02947998,13.5950613022,,0.0169764047713,-0.035340671676,0.998438726493,0.0397858668237
1540963740537051892,,234,,1540963740,409563605,'',,,7.15211200714,278.225036621,13.6219482422,,0.0168867060477,-0.0378879245888,0.998379295515,0.0389629658889
1540963740861853155,,235,,1540963740,754535896,'',,,5.2865319252,278.404693604,13.663066864,,0.0149812504275,-0.0416371416449,0.998315263707,0.0375306008377
1540963741213329353,,236,,1540963741,107059498,'',,,3.52296447754,278.601470947,13.6864318848,,0.0170186295389,-0.0435165727317,0.998243570075,0.0364200253314
1540963741552650572,,237,,1540963741,452330912,'',,,1.74259197712,278.784362793,13.7119426727,,0.0197138464539,-0.044369983747,0.998197316516,0.0352813817841
1540963741952113584,,238,,1540963741,804048051,'',,,-0.0586283653975,278.97052002,13.7624959946,,0.0186703404794,-0.0413467563551,0.998345526338,0.0353281252291
1540963742284495291,,239,,1540963742,156968265,'',,,-1.80820536613,279.154327393,13.7995519638,,0.018779288301,-0.0432697379476,0.998252078645,0.0356073084992
1540963742683441800,,240,,1540963742,509033259,'',,,-3.52619814873,279.330230713,13.8465547562,,0.0189191318441,-0.0436486878536,0.998204899948,0.0363843178627
1540963743116587028,,241,,1540963742,894760292,'',,,-5.42902851105,279.498596191,13.8900308609,,0.019408048589,-0.0441819694861,0.998131145645,0.0374899449185
1540963743379690728,,242,,1540963743,246966994,'',,,-7.04404306412,279.676330566,13.9364919662,,0.0189705917955,-0.0440238754758,0.998133788085,0.0378278312599
1540963743702431848,,243,,1540963743,598726374,'',,,-8.64510250092,279.838684082,13.9772863388,,0.0193590883361,-0.0434955617737,0.998103937059,0.0390117646685
1540963744131352982,,244,,1540963743,951035036,'',,,-10.2495517731,280.026550293,14.0191698074,,0.0206151729105,-0.0423368541548,0.998094210463,0.0398820281294
1540963744494976252,,245,,1540963744,343707490,'',,,-12.0265293121,280.221069336,14.0616130829,,0.0205127573834,-0.0415583259241,0.998042963248,0.0419804544382
1540963744910060683,,246,,1540963744,752399130,'',,,-13.7439079285,280.417572021,14.1178693771,,0.018487050969,-0.0414510535548,0.99807696661,0.0422186374567
1540963745315157535,,247,,1540963745,201093200,'',,,-15.6633405685,280.623321533,14.1645507812,,0.0170112959857,-0.043645325158,0.998014863876,0.0420955136271
1540963745792752250,,248,,1540963745,650126929,'',,,-17.4960842133,280.827758789,14.2088060379,,0.0184277226298,-0.0433810293773,0.998036677538,0.0412469438667
1540963746207658556,,249,,1540963746,98757664,'',,,-19.3128547668,281.036132812,14.2494812012,,0.0201061015885,-0.0433701940762,0.998033273384,0.0405510402544
1540963746651874460,,250,,1540963746,547626961,'',,,-21.1083335876,281.226379395,14.2926273346,,0.0191406011059,-0.0414465886667,0.99813469129,0.0405334577339
1540963747113295829,,251,,1540963746,995989836,'',,,-22.9062099457,281.423858643,14.3356313705,,0.0198194999315,-0.0424135650352,0.998122740548,0.0394875563224
1540963747553102009,,252,,1540963747,445078039,'',,,-24.7546482086,281.606140137,14.3782978058,,0.0191044968142,-0.0439477202081,0.998072554823,0.0394304323709
1540963748057654428,,253,,1540963747,893633298,'',,,-26.6002826691,281.814788818,14.4263982773,,0.0197041633878,-0.0447417601313,0.997989697694,0.0403298081201
1540963748451363760,,254,,1540963748,342121534,'',,,-28.4277820587,282.00604248,14.4669027328,,0.0192882180228,-0.0495059285436,0.997722012974,0.0415681735642
1540963748890490412,,255,,1540963748,790883330,'',,,-30.2977046967,282.214477539,14.5205936432,,0.0178500079562,-0.0543796441621,0.997475850786,0.0420253357099
1540963749344125489,,256,,1540963749,239247322,'',,,-32.0681838989,282.373626709,14.5579137802,,0.0212001582153,-0.0559083375827,0.997371557088,0.0409242895967
1540963749795437819,,257,,1540963749,672666553,'',,,-33.7454490662,282.557525635,14.6180620193,,0.0231606362556,-0.0543609707132,0.997452411425,0.039964729562
1540963750289236434,,258,,1540963750,177112361,'',,,-35.5371665955,282.761505127,14.6757936478,,0.023089741779,-0.0551799576894,0.997411731099,0.0398985327332
1540963750791999626,,259,,1540963750,681812741,'',,,-37.2339782715,282.945220947,14.7422418594,,0.022088918985,-0.0524178881131,0.997548458517,0.0407617932097
1540963751282111713,,260,,1540963751,171366660,'',,,-38.94298172,283.127502441,14.7915887833,,0.0245716471956,-0.052585220004,0.997421494229,0.0422067247582
1540963751794364467,,261,,1540963751,675367341,'',,,-40.5529899597,283.304351807,14.8586931229,,0.0243067688998,-0.050293531628,0.997452359137,0.0443682911243
1540963752367103580,,262,,1540963752,221282920,'',,,-42.3102073669,283.516357422,14.9237718582,,0.0236819469981,-0.0517834378687,0.997449535621,0.0430354236074
1540963752864432956,,263,,1540963752,717566662,'',,,-43.8564758301,283.689575195,14.9786310196,,0.0258636550994,-0.0491244883877,0.997582389111,0.041799945811
1540963753331531289,,264,,1540963753,222326871,'',,,-45.3642692566,283.832855225,15.0346193314,,0.0238013176402,-0.0502725592379,0.997679991951,0.0392528720426
1540963753851388722,,265,,1540963753,727191298,'',,,-46.7891426086,283.996856689,15.0868301392,,0.0219517165195,-0.0487765675622,0.997835379511,0.0382557993709
1540963754411128684,,266,,1540963754,271919552,'',,,-48.2510604858,284.137542725,15.1266689301,,0.0231476083708,-0.0484616294688,0.997836805657,0.0379128910005
1540963754925947108,,267,,1540963754,816969777,'',,,-49.590259552,284.277404785,15.1747484207,,0.0240529356893,-0.0450503110088,0.997957572749,0.0383743592426
1540963755481877018,,268,,1540963755,362102113,'',,,-50.853931427,284.405944824,15.2124071121,,0.0248028744106,-0.0463628401224,0.997877483588,0.0384163803064
1540963756028755607,,269,,1540963755,908333666,'',,,-52.0782279968,284.545043945,15.253364563,,0.0296098018031,-0.0461669097362,0.997681283898,0.0402980746846
1540963756561042143,,270,,1540963756,459355104,'',,,-53.2435913086,284.691650391,15.3068466187,,0.0343540098513,-0.0464410849009,0.997290419776,0.0455503834527
1540963757085633089,,271,,1540963757,4422905,'',,,-54.3771400452,284.818786621,15.3592500687,,0.0289528973191,-0.0493085006954,0.996953391338,0.0530501356141
1540963757620711527,,272,,1540963757,509442193,'',,,-55.3543930054,284.946624756,15.4188976288,,0.0176440681898,-0.0450203863467,0.997262866998,0.0559336651095
1540963758145956257,,273,,1540963758,54899467,'',,,-56.4977073669,285.100006104,15.4625740051,,0.0159493772698,-0.0445447512241,0.997325076323,0.0557139239038
1540963758693328498,,274,,1540963758,601778545,'',,,-57.7807121277,285.287078857,15.4741592407,,0.0236598446213,-0.0458741341042,0.997208386761,0.0539555122436
1540963759221434116,,275,,1540963759,111659630,'',,,-59.0852661133,285.472076416,15.5055646896,,0.0262411843343,-0.0458340943676,0.997270001806,0.0516060175397
1540963759745459196,,276,,1540963759,656700746,'',,,-60.6379928589,285.681152344,15.5590867996,,0.0263847883136,-0.0461899724187,0.997392391302,0.0487722188825
1540963760293879808,,277,,1540963760,202321403,'',,,-62.3212280273,285.907043457,15.6293125153,,0.026986774641,-0.0453023648891,0.997561133144,0.0457295482777
1540963760835135328,,278,,1540963760,698762189,'',,,-63.9800071716,286.084686279,15.6899414062,,0.0264255750177,-0.0444985585478,0.997758737914,0.0424155486565
1540963761342157046,,279,,1540963761,195630512,'',,,-65.7155456543,286.258422852,15.7608966827,,0.0249600971423,-0.0438136698332,0.997929075273,0.039935861639
1540963761828036097,,280,,1540963761,692039235,'',,,-67.4258804321,286.480895996,15.8293323517,,0.027149563974,-0.0433754380965,0.998009018451,0.0368711437443
1540963762283396068,,281,,1540963762,191076376,'',,,-69.1064682007,286.633056641,15.890288353,,0.0286105539809,-0.0451023755953,0.997913388995,0.0362780693392
1540963762822408656,,282,,1540963762,701391098,'',,,-70.8046340942,286.801147461,15.9703722,,0.0257844100161,-0.0462706347342,0.997955109022,0.0357742579658
1540963763286135004,,283,,1540963763,190705524,'',,,-72.4881134033,286.978515625,16.0432510376,,0.0239418856101,-0.0473755868206,0.998026524764,0.0335468798276
1540963763833418570,,284,,1540963763,695355959,'',,,-74.2162399292,287.134674072,16.0987262726,,0.0245314412017,-0.0475324637756,0.998155823078,0.0287020709148
1540963764278893833,,285,,1540963764,184611894,'',,,-75.8915176392,287.258056641,16.1598453522,,0.0233121249762,-0.0423290039971,0.998744743009,0.0131810929311
1540963764800434814,,286,,1540963764,689090335,'',,,-77.4926757812,287.261352539,16.193529129,,0.0220621044926,-0.0410092037876,0.998457456518,-0.0302359971069
1540963765368554499,,287,,1540963765,234451956,'',,,-79.1978378296,287.076751709,16.24061203,,0.0198964373231,-0.0337328516677,0.991906111157,-0.120782706834
1540963766028543377,,288,,1540963765,730883039,'',,,-80.5226745605,286.631896973,16.2430019379,,0.0150346615266,-0.0315614320894,0.973220891105,-0.227198005845
1540963766415191365,,289,,1540963766,291022269,'',,,-81.7686767578,285.846618652,16.2350139618,,0.0134121539105,-0.0300355338111,0.933397096807,-0.357334341311
1540963766941270851,,290,,1540963766,836157929,'',,,-82.7510757446,284.815612793,16.175743103,,0.0127266242479,-0.0303005099822,0.87505245903,-0.482911074639
1540963767462416229,,291,,1540963767,332623664,'',,,-83.3582687378,283.638183594,16.1381721497,,-0.00685114753748,0.0377722236717,-0.816518611411,0.57604139758
1540963768078121453,,292,,1540963767,877950537,'',,,-83.787651062,282.265014648,16.0684757233,,-0.00426525688536,0.0424470528854,-0.764880897188,0.642757506682
1540963768534067207,,293,,1540963768,438262417,'',,,-84.0104446411,280.820922852,15.9656591415,,-0.00112032899643,0.0425491803278,-0.733570444208,0.678279231701
1540963769076763996,,294,,1540963768,983946006,'',,,-84.1771316528,279.299987793,15.8544464111,,-0.00265044377341,0.0418283626945,-0.72161193276,0.691027899445
1540963769659932740,,295,,1540963769,529420474,'',,,-84.3041000366,277.773773193,15.7424020767,,-0.00301274278525,0.0385351327128,-0.720414253337,0.692466075098
1540963770174621663,,296,,1540963770,74043407,'',,,-84.4187088013,276.257141113,15.6368751526,,-0.00120972397401,0.0359617185526,-0.722861904516,0.690055009678
1540963770672895092,,297,,1540963770,570619753,'',,,-84.5285949707,274.851593018,15.5402593613,,0.000422055834789,0.0330770982102,-0.726208787731,0.686677888234
1540963771291208157,,298,,1540963771,131070029,'',,,-84.6716537476,273.199676514,15.4273633957,,0.00190123222477,0.027772898991,-0.732855277722,0.67981476798
1540963771826723686,,299,,1540963771,676918837,'',,,-84.8738708496,271.546813965,15.3217830658,,-0.00444985708814,0.0200980441546,-0.740561714257,0.671672994442
1540963772332187290,,300,,1540963772,220907119,'',,,-85.0921478271,269.970123291,15.2531051636,,-0.00587285949842,0.0212522386607,-0.730689603678,0.682353701513
1540963772926826535,,301,,1540963772,766974253,'',,,-85.2031860352,268.475280762,15.1938495636,,-0.00417558394141,0.0218015997921,-0.697862589927,0.71588761721
1540963773433695798,,302,,1540963773,311701554,'',,,-85.1083068848,267.047149658,15.1345005035,,-0.00189722971347,0.0218677949651,-0.637703150935,0.769969384611
1540963773952287731,,303,,1540963773,856984815,'',,,-84.7834320068,265.749053955,15.06042099,,0.00146125001276,0.0232261107933,-0.557873235935,0.829599835098
1540963774547809371,,304,,1540963774,408101036,'',,,-84.2040481567,264.623901367,14.9878835678,,0.00978886613567,0.017202036814,-0.468992554581,0.882980322289
1540963775055208526,,305,,1540963774,912977098,'',,,-83.5365753174,263.721099854,14.9130506516,,0.0100323536893,0.0125095883243,-0.382918051043,0.923643129952
1540963775600878893,,306,,1540963775,458378579,'',,,-82.5717086792,262.876312256,14.8376522064,,0.0186804034754,0.00808027271509,-0.281157652632,0.959445741388
1540963776076632538,,307,,1540963775,954710177,'',,,-81.5008087158,262.285125732,14.779378891,,0.0219276605205,0.00902129801355,-0.191224335217,0.981259934867
1540963776603056460,,308,,1540963776,499493225,'',,,-80.161895752,261.833099365,14.7171592712,,0.0250695907962,0.00853925950892,-0.106648023561,0.993944069968
1540963777155326292,,309,,1540963777,60601657,'',,,-78.708480835,261.592224121,14.6582078934,,0.0246235604143,0.00703498031651,-0.0392773611133,0.998900136489
1540963777762899332,,310,,1540963777,605487683,'',,,-77.153717041,261.504821777,14.5985565186,,0.0238685839467,0.00636980317483,-0.0041198472506,0.999686333518
1540963778258391811,,311,,1540963778,150801677,'',,,-75.498260498,261.465209961,14.5433282852,,0.021641033,0.00581319669052,0.00661423309812,0.999727018171
1540963778793966103,,312,,1540963778,695764638,'',,,-73.682723999,261.451751709,14.484998703,,0.020371318962,0.00512745078984,0.0077468519156,0.999749323599
1540963779314618476,,313,,1540963779,207891104,'',,,-71.9499893188,261.425994873,14.4331436157,,0.0194270469949,0.00538965239459,0.00665325486954,0.999774594533
1540963779764456383,,314,,1540963779,656415630,'',,,-70.2737884521,261.402740479,14.3757476807,,0.0178278547784,0.00516035260173,0.00545852499033,0.999812861158
1540963780203068540,,315,,1540963780,105131657,'',,,-68.5155487061,261.36907959,14.3143720627,,0.0158288237774,0.0056452298492,0.0019378037499,0.999856901361
1540963780653075276,,316,,1540963780,554425673,'',,,-66.7040023804,261.320220947,14.2519378662,,0.0149976457504,0.00703988882659,-0.00269286337315,0.999859099594
1540963781104386715,,317,,1540963781,2485373,'',,,-64.7925567627,261.236083984,14.1811103821,,0.0133812928113,0.00561845173726,-0.00551555799352,0.999879472145
1540963781505141153,,318,,1540963781,388926089,'',,,-63.0803527832,261.165466309,14.1258220673,,0.0123862198867,0.0057751386754,-0.00762927004615,0.999877490049
1540963781869762796,,319,,1540963781,788590304,'',,,-61.2814788818,261.0887146,14.0648965836,,0.01231655905,0.0063207562578,-0.0093309132387,0.999860634629
1540963782294302073,,320,,1540963782,189443143,'',,,-59.5053062439,261.01071167,13.9953451157,,0.0124781160118,0.00691382949811,-0.010192218938,0.999846282708
1540963782681045026,,321,,1540963782,581920004,'',,,-57.671546936,260.90713501,13.9221897125,,0.0121102317153,0.00588599510778,-0.010392171233,0.999855321611
1540963783092318412,,322,,1540963782,990542124,'',,,-55.8658409119,260.818878174,13.8634386063,,0.0133288392492,0.00600901588671,-0.0117008021349,0.999824642661
1540963783482441611,,323,,1540963783,382984506,'',,,-54.041809082,260.718963623,13.8029174805,,0.0145053470146,0.00575722165864,-0.0120394061088,0.999805729592
1540963783930728137,,324,,1540963783,791134022,'',,,-52.1938476562,260.628479004,13.7348279953,,0.0156624222471,0.0051753048991,-0.012886120624,0.999780891673
1540963784313982991,,325,,1540963784,178557096,'',,,-50.3425140381,260.528533936,13.6721563339,,0.016731563126,0.00540766456829,-0.0136777371356,0.999751849976
1540963784657975798,,326,,1540963784,529014232,'',,,-48.728427887,260.4425354,13.6184244156,,0.0162763834936,0.00461253902915,-0.0156131721785,0.999734977532
1540963785081155121,,327,,1540963784,928915948,'',,,-46.9123535156,260.328460693,13.5734529495,,0.0172615831552,0.00460821070459,-0.0193599236753,0.99965292898
1540963785501702626,,328,,1540963785,330452243,'',,,-45.12758255,260.1980896,13.5084466934,,0.0168057944009,0.00388689321773,-0.0236700514793,0.999571000406
1540963785942519114,,329,,1540963785,723158077,'',,,-43.4119491577,260.052185059,13.4528179169,,0.0182711978807,0.00485871456085,-0.0262751376402,0.999475937852
1540963786300758565,,330,,1540963786,131745655,'',,,-41.7052192688,259.925628662,13.4017267227,,0.0181286219214,0.00516419556044,-0.0250078817643,0.999509512298
1540963786784922783,,331,,1540963786,580310989,'',,,-39.8463859558,259.775482178,13.3517923355,,0.0196585846679,0.0043497825474,-0.0185607266653,0.999625001571
1540963787181442592,,332,,1540963787,28710196,'',,,-38.1040039062,259.707366943,13.3077869415,,0.0229719115384,0.0040201882037,0.00126041201594,0.999727226844
1540963787654022306,,333,,1540963787,477704115,'',,,-36.4458656311,259.745941162,13.2599420547,,0.0253356909153,0.00305931362734,0.0406584081395,0.998847155339
1540963788097154951,,334,,1540963787,966603062,'',,,-34.6480140686,259.923309326,13.227560997,,0.0269476318156,0.00104686949715,0.108819914585,0.993695607286
1540963788652532842,,335,,1540963788,471616312,'',,,-33.0295181274,260.370178223,13.2086029053,,0.0275777268799,-0.00065873106558,0.195533417531,0.980308983237
1540963789148088245,,336,,1540963789,16378728,'',,,-31.4662342072,261.163604736,13.2142925262,,0.0306671673246,-0.00393644433178,0.308388715272,0.95075781581
1540963789642294749,,337,,1540963789,512995065,'',,,-30.3053913116,262.210357666,13.2327699661,,0.0326401961433,-0.00341923148497,0.410692092786,0.911183240339
1540963790172523513,,338,,1540963790,10490920,'',,,-29.3277339935,263.495819092,13.2631082535,,0.0347290373019,-0.00640631298117,0.506896621699,0.861283156244
1540963790637140286,,339,,1540963790,522528497,'',,,-28.6611785889,264.923370361,13.3123407364,,0.0349921232414,-0.0103636717546,0.586423807251,0.809181847225
1540963791198613653,,340,,1540963791,67383219,'',,,-28.1759395599,266.637573242,13.3777914047,,0.0339821709269,-0.0219942292512,0.64826558835,0.760337550585
1540963791723212519,,341,,1540963791,613367096,'',,,-27.9052963257,268.408508301,13.4767580032,,0.0361660311806,-0.0278291241465,0.673517909271,0.73776090036
1540963792220330999,,342,,1540963792,109029245,'',,,-27.7341251373,270.01763916,13.585767746,,0.0367894407108,-0.0284560145568,0.678782241654,0.732865217179
1540963792848925578,,343,,1540963792,654083781,'',,,-27.5490856171,271.722259521,13.7043075562,,0.0384210860794,-0.0270302548456,0.678286248568,0.733294593936
1540963793369581312,,344,,1540963793,158381540,'',,,-27.3799304962,273.234893799,13.819814682,,0.0387158918488,-0.0253483608003,0.682559085382,0.729363850204
1540963793877249637,,345,,1540963793,663418846,'',,,-27.2971343994,274.676300049,13.9172945023,,0.0363262053254,-0.0255623709602,0.702783638316,0.710015579165
1540963794408063298,,346,,1540963794,208268033,'',,,-27.3100833893,276.264099121,14.030629158,,0.0362331977848,-0.0224001819107,0.73762037142,0.673870625745
1540963794913117520,,347,,1540963794,753374504,'',,,-27.4872608185,277.778381348,14.1213293076,,0.0371925091495,-0.0262717162429,0.792347549432,0.608368139599
1540963795479347793,,348,,1540963795,298458497,'',,,-27.9792137146,279.138519287,14.2190618515,,0.0386367850551,-0.0330718679184,0.853561152912,0.518504368411
1540963796026214327,,349,,1540963795,843535142,'',,,-28.6957969666,280.322601318,14.3278627396,,0.0340915423782,-0.0386254821169,0.908285953477,0.415165600383
1540963796510688900,,350,,1540963796,395453867,'',,,-29.6738834381,281.26675415,14.4251194,,0.0304548558694,-0.0428305555608,0.951388661395,0.303475976335
1540963797028128946,,351,,1540963796,900319000,'',,,-30.7734489441,281.925567627,14.4954309464,,0.0277820495084,-0.0490682800932,0.978549096302,0.198146742687
1540963797553130116,,352,,1540963797,445680929,'',,,-32.2124099731,282.384399414,14.5570220947,,0.0266096440209,-0.0541690598428,0.992800905942,0.103460222716
1540963798098239571,,353,,1540963797,942176631,'',,,-33.6275405884,282.621246338,14.6156549454,,0.0250035878556,-0.0535487143425,0.997212466158,0.0455482883402
1540963798624826850,,354,,1540963798,486973872,'',,,-35.2685089111,282.766418457,14.6719007492,,0.02336071683,-0.0554534848605,0.998013796323,0.018645899883
1540963799090774854,,355,,1540963798,991814083,'',,,-36.8388748169,282.863464355,14.7230892181,,0.0214621773957,-0.0530010159392,0.998201571008,0.0179957614157
1540963799594886575,,356,,1540963799,496510636,'',,,-38.4575119019,282.970245361,14.7672615051,,0.0245198183739,-0.0527180666738,0.998100592853,0.0203651209475
1540963800084374928,,357,,1540963799,985620319,'',,,-40.1369438171,283.07824707,14.8183393478,,0.0251476761862,-0.0517350055956,0.998083938836,0.0227931576008
1540963800593211971,,358,,1540963800,490536119,'',,,-41.9175453186,283.231781006,14.8829107285,,0.0243623947797,-0.0526263338159,0.997904339968,0.0287031137236
1540963801039541176,,359,,1540963800,938862665,'',,,-43.5674362183,283.382110596,14.940574646,,0.0263098194049,-0.0507487626678,0.997726067868,0.0357076249174
1540963801496880762,,360,,1540963801,388280004,'',,,-45.2769355774,283.545043945,14.9998636246,,0.0256931732933,-0.0515676799692,0.99741539135,0.0429321484656
1540963801941499961,,361,,1540963801,836954189,'',,,-47.1012229919,283.787994385,15.0717477798,,0.0240803859692,-0.0480110564996,0.997389029769,0.0482719566801
1540963802358831732,,362,,1540963802,229336231,'',,,-48.7518501282,283.987426758,15.1249074936,,0.0255188577656,-0.0488024638455,0.997422913498,0.0459854897336
1540963802732969020,,363,,1540963802,638016020,'',,,-50.3891181946,284.180938721,15.182217598,,0.0254795160919,-0.0447873877777,0.997600224056,0.0462456391929
1540963803229196605,,364,,1540963803,86387055,'',,,-52.2440719604,284.411987305,15.2477436066,,0.0301516810852,-0.0460380589018,0.99745863359,0.0452508696159
1540963803633697894,,365,,1540963803,535163238,'',,,-54.0517120361,284.628295898,15.3281669617,,0.0332662483327,-0.0482176800986,0.997245690953,0.0454909127116
1540963804060748666,,366,,1540963803,968550276,'',,,-55.8547096252,284.849700928,15.4217004776,,0.0138499377012,-0.0447000048403,0.997782812253,0.0473237326418
1540963804478116156,,367,,1540963804,369636066,'',,,-57.4733352661,285.030395508,15.4650888443,,0.0205025749464,-0.0468282820501,0.997608245197,0.0465244415049
1540963804862337004,,368,,1540963804,769558959,'',,,-59.1668434143,285.266784668,15.4908046722,,0.0267524459379,-0.0451000397286,0.997621703241,0.0447354912588
1540963805272485944,,369,,1540963805,171208622,'',,,-60.8605155945,285.478790283,15.5492839813,,0.0258897200815,-0.0461187003597,0.997646154294,0.0436454699807
1540963805642711330,,370,,1540963805,562740444,'',,,-62.5803565979,285.664642334,15.6154346466,,0.0264103985024,-0.0452470956414,0.997773306543,0.0412749947355
1540963806067168181,,371,,1540963805,971127346,'',,,-64.3232879639,285.859649658,15.6825418472,,0.0253841857566,-0.0434827018573,0.997875191391,0.0413522935351
1540963806444512806,,372,,1540963806,364082542,'',,,-66.1043701172,286.069274902,15.7532253265,,0.0264149645258,-0.0446960558304,0.997807124954,0.0410545358965
1540963806857760710,,373,,1540963806,772499896,'',,,-67.8586044312,286.276245117,15.8240756989,,0.0286255375566,-0.0428596018411,0.997854568856,0.0403719902946
1540963807238907143,,374,,1540963807,158905126,'',,,-69.6897583008,286.468048096,15.9013185501,,0.0285292708286,-0.0451550901939,0.997766750313,0.0401074896536
1540963807602772560,,375,,1540963807,511009196,'',,,-71.3208847046,286.640594482,15.9710416794,,0.025390930818,-0.0461242391652,0.99780806579,0.0400860490091
1540963807963870411,,376,,1540963807,862656420,'',,,-72.9774017334,286.814575195,16.0337238312,,0.0255353969206,-0.0477400416412,0.997750247539,0.0395381100163
