rosbagTimestamp,header,seq,stamp,secs,nsecs,frame_id,pose,pose,position,x,y,z,orientation,x,y,z,w,covariance
1534834129211697611,,0,,1534834128,726448770,"""map""",,,,0.0,0.0,0.0,,0.0,0.0,0.0,1.0,"[0.07443248971446434, -0.002218794603237891, 0.004570124719681737, -0.00012141038788269372, -0.0009182881724762963, 0.00013684269063581975, -0.0022187946118245603, 0.05178406130910439, -0.01033591199919613, 0.003259395630931634, 0.00027363723758147996, -0.00022916700654384376, 0.004570124717150584, -0.010335911986215121, 0.03293915628073458, -0.00017082932216362287, -0.00015100697502385028, -7.668069843817083e-05, -0.00012141038817529194, 0.003259395632770258, -0.00017082932393810843, 0.0010347308314859428, 2.6698690283077596e-05, 2.3692344833968115e-05, -0.000918288171884488, 0.00027363724102259183, -0.0001510069756275215, 2.6698691457016926e-05, 0.0004249811373506959, 3.6010560063377276e-05, 0.00013684268990588305, -0.00022916700435624105, -7.668069867464199e-05, 2.3692345756886026e-05, 3.601056011596479e-05, 0.0005008118616720294]"
1534834129211697611,,1,,1534834129,125968090,"""map""",,,,-0.0108991684392,-0.0224246326834,-0.015009958297,,-0.000194939778507,-0.00136092361592,-0.000381517290455,0.999998986721,"[0.3787338251284947, -0.010859178149965627, 0.024015363983691838, -0.0004912387030070749, 0.004713051582938928, 2.1008604217069857e-05, -0.010859178167903973, 0.26628390615561853, -0.0530030501178545, 0.017389952965576275, -0.0012018425637675423, -0.0009469579459918558, 0.024015364042061633, -0.05300305009815833, 0.16553656475108197, -0.0003254254221239886, 0.0009115357248740087, -0.0005711140855400028, -0.0004912386978910572, 0.017389952964665167, -0.00032542542199783745, 0.005505443646714946, -5.074696646438397e-05, 0.00011130612035714503, 0.004713051580910067, -0.0012018425716273477, 0.0009115357290867743, -5.0746969063653824e-05, 0.002259297692043593, -0.0002700899392201134, 2.1008594016294587e-05, -0.0009469579481875414, -0.000571114079948063, 0.00011130611965983333, -0.00027008993807861934, 0.002976444599509229]"
1534834129849820262,,2,,1534834129,726901626,"""map""",,,,-0.0121709080413,-0.0222369469702,-0.0150929791853,,-0.0011232735379,-0.00226467882647,-0.000834851692543,0.999996453517,"[0.37860446000864195, -0.006984532673425954, 0.02417127396557595, -6.863983688670205e-05, 0.0050870495702630926, -0.0005522333721379213, -0.006984532450832121, 0.26613890330515516, -0.05369018455932105, 0.018198856456408664, -0.0010596570495916553, -0.0003533793470953475, 0.02417127382665737, -0.05369018451955701, 0.17062438919887515, -0.0006502635109391019, 0.0008406393390558495, -0.0007556328578248091, -6.863980803362191e-05, 0.01819885646559009, -0.0006502635153204629, 0.005831643854114646, -1.9816627779531306e-05, 0.00011979106723429042, 0.0050870495696584824, -0.001059657076941314, 0.0008406393535482833, -1.9816634626284942e-05, 0.002307385862017673, -0.0002584413786309828, -0.0005522333786043953, -0.0003533793480224047, -0.0007556328583686815, 0.0001197910668265252, -0.0002584413782529323, 0.0029284478402619683]"
1534834130384549665,,3,,1534834130,231986459,"""map""",,,,-0.0098256058991,-0.0329066328704,-0.023371335119,,-0.000694312660944,-0.000642544372457,-0.000243531488814,0.999999523163,"[0.38092382229250304, -0.010549816858566746, 0.022599165869711668, -0.0006762414002586122, 0.00474889153036472, 3.506970893520915e-06, -0.010549816946667104, 0.2617845344038509, -0.051387924497062254, 0.01751446037235265, -0.0013603651778290463, -0.0006328254361567296, 0.02259916589127424, -0.05138792447188739, 0.16467822427193538, -0.00042474351303064547, 0.0010395474816823184, -0.0005872967173710465, -0.0006762414253588775, 0.017514460394840777, -0.00042474352688518343, 0.005541554803799922, -9.568413598839478e-05, 0.00010015674889095014, 0.004748891534599353, -0.0013603651466652846, 0.001039547479129193, -9.568412761056997e-05, 0.0022501734445809353, -0.00023942947408580717, 3.5069452491285643e-06, -0.0006328253950636654, -0.0005872967259347662, 0.00010015675421141046, -0.00023942947419463515, 0.0028570660951607587]"
1534834130899342681,,4,,1534834130,777634528,"""map""",,,,-0.0168181937188,-0.0177667345852,-0.0195641573519,,-8.3228161986e-05,-0.00101926853225,-0.000872958785847,0.999999083578,"[0.37683389581562715, -0.010648211732534229, 0.025324877966242904, -0.00016956847528595075, 0.005012876553560273, 0.00022155844366789125, -0.010648211700482838, 0.2586350724446313, -0.052422700980113125, 0.016279668438103436, -0.001422490346602046, -0.0004716689207587117, 0.025324877909611604, -0.05242270096466143, 0.16671212128253124, -0.0007515035775634947, 0.0018158546694338035, -0.0008112602943382671, -0.000169568474487631, 0.01627966844165222, -0.0007515035885972827, 0.005281199336649512, -3.006607172586179e-05, 0.0001102639139381559, 0.00501287655373005, -0.0014224903543240289, 0.0018158546683845057, -3.006607193486393e-05, 0.0022994849793803165, -0.00023997127270708045, 0.00022155841628538324, -0.0004716689191270218, -0.0008112602892921065, 0.0001102639123604865, -0.0002399712733439894, 0.002905271224462707]"
1534834131443841982,,5,,1534834131,322858278,"""map""",,,,-0.00758916558698,-0.0272108893842,-0.014537172392,,-0.00047916255658,-0.0015206249102,-0.000322402945497,0.999998658895,"[0.3769186296756173, -0.009257802027502959, 0.024309026376374533, -0.00048031633963308945, 0.004816888701755271, 7.190257952942742e-05, -0.009257802100756983, 0.2663360197612837, -0.05067172957102604, 0.01761188724203709, -0.0013156064124628958, 0.00013640756603276784, 0.024309026412959, -0.050671729536033695, 0.16763512108641018, -0.00014678697604528877, 0.0013421082664998019, -0.000891469299965811, -0.00048031635158902016, 0.017611887239824722, -0.00014678697797806324, 0.005780270865967135, -1.19224100122744e-05, 0.00011715715201367597, 0.004816888693707561, -0.0013156064022281772, 0.0013421082595556305, -1.1922409256923317e-05, 0.002271691633320928, -0.00026587791802826054, 7.190254843044599e-05, 0.000136407598806577, -0.0008914693015636558, 0.00011715716403964561, -0.0002658779160930782, 0.003021408606807488]"
1534834131989222653,,6,,1534834131,868832522,"""map""",,,,0.0734435543418,-0.0247218757868,-0.0169515907764,,-2.59437917122e-05,-0.0017003603663,-0.000140220895576,0.999998539685,"[0.3769425962980003, -0.009533507632449922, 0.022147816714839903, -0.00034480309563102537, 0.005117647992077425, -0.000558180869879388, -0.009533507616976066, 0.26455615945778005, -0.04970205490896292, 0.01734547636114363, -0.0015610077363126353, -0.0007061574925304894, 0.022147816671334152, -0.04970205493722928, 0.16574140242087065, 9.430757483790738e-05, 0.0008514106706381493, -0.000755471640752484, -0.00034480309925488385, 0.017345476361903613, 9.430757798418068e-05, 0.005525886890596111, -0.00013838515495585672, 0.0001679002743109048, 0.005117647993397482, -0.0015610077198894704, 0.0008514106747534531, -0.0001383851482345773, 0.0023858838171646932, -0.00029768742061587306, -0.0005581808382725365, -0.0007061575339290665, -0.0007554716370650984, 0.00016790026547959197, -0.00029768742002852036, 0.002974193889762153]"
1534834132534865467,,7,,1534834132,414369042,"""map""",,,,0.220207899809,-0.0410732068121,-0.0114877354354,,-0.000223395475472,-0.00186132038107,-0.000278205282968,0.999998196958,"[0.3802486727089315, -0.009816793877863663, 0.02473482168964577, -0.00013526022693035922, -0.004966722692023705, 0.0006642550910139639, -0.009816793907846667, 0.2641000900455096, -0.05406828334120795, 0.017277289439855317, 0.0013250292078612782, -0.001299414759581183, 0.02473482168323079, -0.05406828344313533, 0.16823189696557297, -0.0008161269874711663, -0.0010101301440940498, -0.0004181221875701073, -0.00013526024295326325, 0.017277289436041107, -0.0008161269681014913, 0.005511948990765369, 0.00013307413661474332, 9.455099168324561e-05, -0.004966722703536161, 0.0013250292071946025, -0.0010101301345244863, 0.00013307413730721026, 0.0023297665873409142, 0.00024427893973513976, 0.0006642550825060211, -0.0012994147455128394, -0.0004181221860085298, 9.455099475102439e-05, 0.00024427893933191304, 0.0028346379959813188]"
1534834133050369598,,8,,1534834132,925845534,"""map""",,,,0.451544135809,-0.0434363186359,-0.00737836258486,,0.000655001014277,-0.00127828085612,-0.000297862443634,0.999998912215,"[0.37049307119069064, -0.012774610131850904, 0.024091561394159397, -0.00026105699528196054, 0.004821416636434117, 0.0007014943274003932, -0.012774610129035673, 0.2596435628704668, -0.05038918578237496, 0.01757272420961181, -0.0011765479050627515, -0.001179148452613508, 0.024091561388831555, -0.05038918584087648, 0.16334080862170916, -0.0006450392941389876, 0.0004711405347945367, -0.000404718907381901, -0.0002610570101511265, 0.017572724216419384, -0.0006450392916027263, 0.005611560724543282, -0.00014149225262229272, 5.667640300023569e-05, 0.004821416644144116, -0.0011765478941448782, 0.00047114053125156053, -0.00014149224896962192, 0.0022294464486612158, -0.00020676412530828018, 0.000701494309001571, -0.0011791484469790654, -0.00040471891672936466, 5.667640241781876e-05, -0.00020676412451744644, 0.0028208140718137846]"
1534834133587928608,,9,,1534834133,471173669,"""map""",,,,0.880056619644,-0.0611728169024,0.000232389793382,,-1.71155342231e-05,-0.00193711035392,-0.000249665197395,0.99999809265,"[0.3887944468583277, -0.017537481911034537, 0.027341418286588644, -0.0006940044175752644, 0.005175614951741731, 0.0010336063312996263, -0.01753748180763986, 0.25935359742174874, -0.05552507820209879, 0.017960045270979108, -0.0016022346222603389, -0.0013607062036030437, 0.02734141813841023, -0.055525078191996494, 0.1708276927591704, -0.0011020471216557654, 0.0005566648073321648, -0.00018817366041771328, -0.0006940043997269121, 0.01796004527836428, -0.0011020471146755276, 0.005612740268891754, -0.0003219683837134226, 9.512100944937886e-05, 0.005175614948934487, -0.0016022346337634344, 0.0005566648141345563, -0.0003219683848337372, 0.0022734997798499993, -0.0002154635790954051, 0.0010336063334378976, -0.0013607062070016842, -0.00018817365414859012, 9.512101176012734e-05, -0.0002154635803471468, 0.002860656365859149]"
1534834134139645310,,10,,1534834134,17482278,"""map""",,,,1.4841657877,-0.0846093073487,0.00877757929265,,0.00112313785031,-0.00249630805955,0.000736101046843,0.99999599158,"[0.37137664250825464, -0.020324667883081637, 0.025459958804737365, -0.00063709861977026, -0.004998226595169314, 0.001176391758636473, -0.020324668020566747, 0.25306216120611585, -0.05752705023884298, 0.01794922237944533, 0.0013567071340346063, -0.001603012370380272, 0.025459958817449672, -0.05752705029296924, 0.16701544490935402, -0.002033074122575068, -0.0003370946165371186, -3.796836011828174e-05, -0.0006370986531855339, 0.017949222371971794, -0.0020330741178556802, 0.005691908814199684, 0.00032844904625634844, 0.00011762895026440218, -0.004998226588563821, 0.001356707100615091, -0.0003370946068329331, 0.00032844903813914595, 0.002255483978451779, 0.00023204862786654296, 0.0011763917674288236, -0.001603012436344142, -3.796834137023442e-05, 0.00011762894226319907, 0.0002320486238390545, 0.0029539158156701795]"
1534834134683056895,,11,,1534834134,562755378,"""map""",,,,2.23704004288,-0.123983100057,0.0358782671392,,0.00171353074649,-0.000874243124484,0.00167954481219,0.99999673664,"[0.3802166153510925, -0.021697489037620775, 0.024413952992467215, -0.00046163405134771904, -0.005722444953664017, 0.0016589085465456013, -0.021697489133769836, 0.24966915088067201, -0.05812003482779129, 0.018685203660427235, 0.0014497602877353126, -0.0018123205714028786, 0.024413953011730636, -0.05812003488091543, 0.16744125658178663, -0.0030163594661708304, -0.0002796957031951039, -0.00017647782264349849, -0.00046163406590475165, 0.0186852036628107, -0.003016359461462179, 0.005874340619196652, 0.0003536232083584784, 0.00011705523979957405, -0.005722444951456864, 0.0014497602570117912, -0.000279695686965741, 0.0003536232003338566, 0.002412057071637903, 0.0002779436484511104, 0.0016589085683887809, -0.00181232059817474, -0.00017647781588458667, 0.00011705523654827227, 0.0002779436456799575, 0.0031648612101950113]"
1534834135244490275,,12,,1534834135,107517123,"""map""",,,,3.1401553154,-0.162907019258,0.0442896261811,,0.00431744221013,-0.0011157690768,0.00332595632982,0.999984517574,"[0.3798970801231912, -0.02079897938761531, 0.02782084363513217, -0.0002742729605530606, -0.005669130911028196, 0.0033163211811181037, -0.020798979600863236, 0.237858379466624, -0.06223919648344884, 0.018465680331351347, 0.0006317002162017279, -0.0018939690086451242, 0.0278208436297438, -0.06223919641008504, 0.17326017932314014, -0.004806306206977447, -0.0010117561695541604, 0.00031922268506559743, -0.0002742729883397628, 0.018465680313947744, -0.004806306214536122, 0.0058403453371606425, 0.00016478733005484034, 0.0001636125076377743, -0.005669130909334432, 0.0006317001945975044, -0.001011756163624499, 0.00016478732452365278, 0.0025364637888341634, 0.00028282706655624677, 0.0033163211928443777, -0.001893969001818347, 0.0003192226794040835, 0.00016361250832508164, 0.0002828270686784109, 0.0034044240272670125]"
1534834135791778638,,13,,1534834135,659536669,"""map""",,,,4.1511554718,-0.191657945514,0.0663324669003,,0.00405995615152,-0.00159820778944,0.00438934214948,0.999980851825,"[0.3853705994624975, -0.016315303543041976, 0.028601711030943635, 0.0006445648835310891, -0.006296745974499896, 0.004004714362158289, -0.01631530353420265, 0.22856238476209767, -0.05831830989292635, 0.018361136571909218, -0.0005386652903927539, -0.0009703793428992761, 0.028601710971106368, -0.05831830989948688, 0.16900716535779997, -0.005013504762856923, -0.0005870937086079353, 0.00039350943614099095, 0.0006445648651497083, 0.018361136575726782, -0.005013504760355516, 0.005895960163856837, -0.0001285739389161112, 0.00018333920016780006, -0.006296745967868747, -0.0005386652984186542, -0.0005870937064272194, -0.00012857394192544467, 0.002677623209020795, 0.0003241180158872931, 0.0040047143531129585, -0.0009703793366933202, 0.000393509434656328, 0.00018333920118461034, 0.00032411801555304174, 0.003586711180172419]"
1534834136330384797,,14,,1534834136,205069767,"""map""",,,,5.25093984604,-0.229083299637,0.0876201540232,,0.00496027298979,-0.00263374580488,0.00817570178705,0.999950795155,"[0.40143117662516886, -0.013612358531806057, 0.028908424595816298, 0.0006779876072682537, -0.00610380715911813, 0.004875023102602185, -0.013612358379783411, 0.22731283124098423, -0.060055571990015044, 0.020013686870885998, -0.0012614491598985044, -0.0003750863633110424, 0.028908424671975123, -0.06005557195450792, 0.16790136728768454, -0.006163585841591937, -0.000817333415541448, 0.0005801072558763243, 0.0006779876317234812, 0.020013686871370655, -0.006163585848954247, 0.006229869230366869, -0.00032290826708262534, 0.00026362601207193816, -0.006103807166264822, -0.001261449169754364, -0.0008173334158410553, -0.00032290827080340526, 0.0026856434780398943, 0.0003464517953944086, 0.00487502309806631, -0.0003750863501375013, 0.0005801072429581601, 0.00026362601236540453, 0.00034645179823005216, 0.0034343777595810298]"
1534834136842034862,,15,,1534834136,710098017,"""map""",,,,6.29003334045,-0.255730241537,0.12225972116,,0.00589456061661,-0.00948141097624,0.0112941530584,0.999873876069,"[0.4039496661199874, -0.0032631523896688736, 0.028133610604642628, 0.0017759305110521656, -0.006583402830077363, 0.006044513812435638, -0.0032631523338495757, 0.22092196829034863, -0.05831471621947154, 0.02113943783794703, -0.0014145826202262663, -0.0001005800083874884, 0.02813361050905637, -0.05831471629727898, 0.1707015201054569, -0.0061694819463062175, -0.0011025642251956047, 0.0005763966382705838, 0.0017759305460040245, 0.021139437821511776, -0.006169481918845895, 0.006737133506684549, -0.00036937208109200125, 0.000355176584946786, -0.006583402825334506, -0.0014145826131471404, -0.001102564236439085, -0.0003693720784899655, 0.0029612116745224844, 0.00037949677532154086, 0.006044513821724115, -0.00010058002392325483, 0.0005763966427157517, 0.0003551765821441564, 0.00037949677447418823, 0.0036335016903742585]"
1534834137391047809,,16,,1534834137,255726041,"""map""",,,,7.45906543732,-0.285620898008,0.174595788121,,0.00361842809193,-0.0229828818877,0.0144779319123,0.999624457475,"[0.4124663221735738, -0.00012138648356232266, 0.02800478010460864, 0.002631519028482549, -0.00646299058379409, 0.006305322549414646, -0.00012138668209698414, 0.23114296922120026, -0.06161047076044996, 0.024251786950604693, -0.0023197988661562926, -0.0004964865594427793, 0.028004780053099892, -0.06161047082522036, 0.1730711439350346, -0.005955384387112403, -0.00034461571898914626, 0.00026897884051784793, 0.0026315189978027937, 0.024251786941324075, -0.005955384366778936, 0.007565085616090273, -0.0007260860377802878, 0.00041066999448631844, -0.006462990579256833, -0.0023197988734869634, -0.0003446157300270463, -0.0007260860421260322, 0.0030465067163182057, 0.0004924100615573479, 0.006305322543373181, -0.000496486575179279, 0.0002689788524209899, 0.0004106699889603595, 0.0004924100635014849, 0.0036066064676087794]"
1534834137976182368,,17,,1534834137,801098672,"""map""",,,,8.57033252716,-0.310294866562,0.249729752541,,0.00344943335431,-0.0316116386578,0.0167018660476,0.999354720539,"[0.412114907978194, 0.0014546165400570903, 0.030449446622639625, 0.002999874865184784, -0.006239069377702431, 0.006721448577103676, 0.0014546167860564306, 0.23759447111233975, -0.061785467844719555, 0.02646328721251612, -0.001672784321910204, 0.00014587871474611188, 0.030449446501347108, -0.06178546772306826, 0.17947619690179428, -0.005207918603029479, -0.002159212405403625, -0.00023345560849451374, 0.002999874925478626, 0.02646328720755201, -0.0052079186198880825, 0.008421051535331348, -0.0007204977685056248, 0.000601008863293805, -0.006239069381511446, -0.0016727843141467894, -0.002159212417886261, -0.00072049776681017, 0.0031166715749376714, 0.0004954881567015448, 0.006721448610470932, 0.00014587868038233107, -0.0002334555995938585, 0.0006010088535949576, 0.000495488156378393, 0.0038505417261094662]"
1534834138492528411,,18,,1534834138,346378809,"""map""",,,,9.66383457184,-0.325147598982,0.34971293807,,0.00195840948352,-0.0363474705015,0.0210770373298,0.999115008411,"[0.4199453327265941, 0.008389393438194209, 0.02704673191649596, 0.002638644882435013, -0.005400853658523775, 0.006121831362345662, 0.008389393592877587, 0.23999789506321426, -0.05359131225603332, 0.029812672972840813, -0.0015648183852286395, 0.0007175716132121942, 0.027046731912093988, -0.05359131226375862, 0.17406912972406977, -0.003288713592233175, -0.00181561449274984, -4.731527149412433e-05, 0.0026386449063363145, 0.029812672954357255, -0.003288713577387943, 0.009731071491080582, -0.000669292693157825, 0.0006949808759992305, -0.005400853654616133, -0.001564818365520493, -0.001815614507767092, -0.0006692926880771618, 0.0028518006420138165, 0.0004366428349863127, 0.006121831365858625, 0.0007175716227368578, -4.731527910382857e-05, 0.0006949808788206268, 0.00043664283713192086, 0.0036841647600988243]"
1534834138986638117,,19,,1534834138,858015555,"""map""",,,,10.6002054214,-0.317813634872,0.425415694714,,0.00218798865561,-0.0356358042728,0.0233338767268,0.999090011631,"[0.43392558486638483, 0.009081050185197491, 0.028063731695409194, 0.0025658071742240044, -0.006382878701960253, 0.006717029103559501, 0.009081049856605773, 0.244228996134492, -0.060146954819599426, 0.03201767605077066, -0.0021295857201551636, 0.0007674435552068509, 0.02806373167869008, -0.060146954809500136, 0.18679690439251662, -0.0048488557831535, -0.0013272316600704463, 5.297071973577294e-05, 0.0025658071197732246, 0.03201767606749945, -0.004848855797416577, 0.010440433461930418, -0.0008283187414375071, 0.0006612964577577845, -0.006382878695680579, -0.0021295857480096037, -0.0013272316557961655, -0.0008283187489048057, 0.0032848395012683067, 0.00047796092296832827, 0.006717029135978509, 0.0007674435217799155, 5.297072999155343e-05, 0.000661296448618044, 0.00047796092236668806, 0.0038329533965811412]"
1534834139521286222,,20,,1534834139,403440786,"""map""",,,,11.5887041092,-0.321259051561,0.523741602898,,0.00424135930069,-0.0344957701565,0.0267226950313,0.999038509729,"[0.43759862584222786, 0.015319031754837197, 0.02779407210931991, 0.002181287186398968, -0.005927874652030018, 0.0054375409897630895, 0.015319031678521012, 0.2298317300845536, -0.047399898742610226, 0.03086584747644873, -0.0016306407348089746, 0.0010235682649470366, 0.027794072215721673, -0.047399898648925715, 0.18675082723303413, -0.0009545473585338006, -0.0027905658397831858, 5.2438186264770604e-05, 0.0021812871410417083, 0.030865847491009762, -0.0009545473886441228, 0.010614038703028862, -0.0008064688078151664, 0.0007039266132804838, -0.005927874646054225, -0.0016306407761938657, -0.002790565842352018, -0.0008064688226869476, 0.0030291284604595224, 0.0004099279375604116, 0.005437540960038504, 0.0010235682620952438, 5.243818496128948e-05, 0.0007039266164736754, 0.0004099279389754376, 0.003603232018666007]"
1534834140069887061,,21,,1534834139,949906031,"""map""",,,,12.5884037018,-0.310588419437,0.615651726723,,0.00336744225759,-0.0348794434262,0.0292687628551,0.998957179642,"[0.45084594790106086, 0.018267713690779237, 0.02787523332755521, 0.0011023019831431253, -0.00633860288458937, 0.005669909032869452, 0.01826771366728733, 0.23759106675666417, -0.04333913567863835, 0.03507940921204826, -0.0014815798942082116, 0.0017833702363438783, 0.02787523349828358, -0.043339135707008175, 0.18966961922045672, 0.0009559193155526061, -0.0012934069989341767, 0.0006763961671595751, 0.001102301986310373, 0.035079409211954904, 0.0009559193313162541, 0.012373982382028277, -0.0006192435648639909, 0.0008890032171598356, -0.006338602896014945, -0.0014815799294044362, -0.00129340699891678, -0.0006192435748239633, 0.0033419740241909753, 0.0005069092893714537, 0.00566990903807704, 0.0017833702419687242, 0.0006763961648616932, 0.0008890032173696793, 0.0005069092878891082, 0.0040820441893625724]"
1534834140611011370,,22,,1534834140,494455372,"""map""",,,,13.5331630707,-0.307693302631,0.701981723309,,0.00314299114686,-0.0352098317367,0.0307622828469,0.998901426858,"[0.43407011463630973, 0.022981435237090505, 0.025856605854247684, 0.0010877149120917921, -0.005922182163548296, 0.005521974697146068, 0.02298143508231509, 0.22362677113884508, -0.03865922083505524, 0.03252570086816711, -0.0018315153049130077, 0.0021921446912376626, 0.02585660588720749, -0.03865922079533438, 0.18603149323344798, 0.0023444791670416566, -0.0018625023305579478, 0.0008368810030390584, 0.0010877148605392213, 0.03252570087538589, 0.0023444791612722234, 0.011834522400573963, -0.0007711865204543092, 0.0008419505905335515, -0.005922182167058278, -0.0018315153202794307, -0.0018625023438717844, -0.0007711865264621352, 0.0032980824814522586, 0.000509240867339809, 0.005521974659763411, 0.002192144706509656, 0.000836881009323913, 0.0008419505960039772, 0.000509240871951274, 0.00382051589319843]"
1534834141124873893,,23,,1534834140,990768327,"""map""",,,,14.391500473,-0.282704770565,0.776605427265,,0.00582137459806,-0.0347975354059,0.0324054828863,0.998851899366,"[0.431483364169503, 0.022233034455929918, 0.028655837567658757, 6.9918596095706235e-06, -0.006732125723636799, 0.004569990526054858, 0.022233034424003425, 0.22675542626633516, -0.03578647319997787, 0.03247187478531672, -0.00023310392175713795, 0.002019428570054291, 0.028655837584426996, -0.03578647295907631, 0.19661426970793883, 0.0047514041956199056, -0.0027494738973915774, 0.0008921995557439443, 6.991862335067894e-06, 0.03247187481182778, 0.004751404130611676, 0.011724055411275129, -0.0002508714711598825, 0.0006775798966812663, -0.006732125721271514, -0.00023310392804353806, -0.0027494738973641163, -0.0002508714713654858, 0.0034625504518087176, 0.00041836876370533033, 0.004569990521408334, 0.002019428567482656, 0.0008921995521767857, 0.0006775798968432565, 0.0004183687651952636, 0.003406911271799966]"
1534834141669337540,,24,,1534834141,536225066,"""map""",,,,15.2915725708,-0.266877144575,0.846994996071,,0.00382808895469,-0.034780679459,0.0337901927884,0.99881623656,"[0.41175266635135394, 0.026735238926293356, 0.025587888543240164, 0.00044279548756889504, -0.005880442367195022, 0.005256336546980994, 0.026735239101352812, 0.224050399998351, -0.0338625632429031, 0.03196086879738597, -0.0006630257967426508, 0.0020522457522610064, 0.02558788861322405, -0.0338625632928668, 0.1950043786311631, 0.004691122436035332, -0.0025243290665201553, 0.0010574767674847768, 0.0004427955433559285, 0.031960868795390805, 0.0046911224497447265, 0.011730509922831209, -0.0003416242862945951, 0.0006384598582714051, -0.005880442374772096, -0.0006630258035446287, -0.002524329067085052, -0.0003416242892320814, 0.0033735414494375647, 0.0004143547491439767, 0.005256336571871096, 0.002052245734833249, 0.0010574767631893176, 0.0006384598517803281, 0.0004143547519262182, 0.0031954904954025988]"
1534834142177194034,,25,,1534834142,40532875,"""map""",,,,16.1452274323,-0.26683139801,0.938418924809,,0.00239881048996,-0.034844780091,0.034790402967,0.998784108361,"[0.4239683646033522, 0.02307551644793837, 0.027484437633078704, -0.0004997282918104041, -0.0060635393803786875, 0.005074910168521579, 0.02307551647756551, 0.2182220034291412, -0.036772177990810256, 0.029160818060513904, -0.0005891616892691414, 0.0016205702357671612, 0.027484437770313196, -0.03677217807355472, 0.1886584737915151, 0.0035168353329149524, -0.0022166951316534432, 0.0013951330065799256, -0.0004997282707850232, 0.029160818047160118, 0.0035168353652681515, 0.010782933088473473, -0.00019486744001153767, 0.0005047748712324304, -0.006063539392135139, -0.000589161698306748, -0.002216695127139998, -0.00019486743991465992, 0.0032790788945845964, 0.0003969783682759475, 0.0050749101903761135, 0.0016205702307093884, 0.001395133005879372, 0.0005047748681507595, 0.0003969783643448102, 0.0033136551062027094]"
1534834142737589009,,26,,1534834142,585958830,"""map""",,,,17.0012702942,-0.251209378242,1.00701165199,,0.00323657611417,-0.0333622566565,0.036673524651,0.998765011473,"[0.40617401530190744, 0.02445409629532094, 0.02568353258096023, -0.00015568437510735496, -0.005971305356329048, 0.004740440783431387, 0.024454096238095625, 0.2088869293265611, -0.03953568306423406, 0.024804359436989266, -0.00040769561123099894, 0.002223560813033064, 0.025683532598254257, -0.039535683085872485, 0.19481818244267235, 0.0031638664564537303, -0.002056975514014493, 0.001280632374259174, -0.00015568440853324422, 0.02480435943168872, 0.003163866454287092, 0.0091159947548871, -9.702850930279836e-05, 0.0005170384103046434, -0.005971305349496418, -0.0004076956633709901, -0.0020569755157558932, -9.702852762876873e-05, 0.003184626167251386, 0.0003864558622994895, 0.004740440789780851, 0.0022235608014374167, 0.0012806323696542066, 0.0005170384079012612, 0.00038645586269813923, 0.0029967187992342185]"
1534834143224375934,,27,,1534834143,91218967,"""map""",,,,17.7189254761,-0.234464153647,1.06411123276,,0.00255055240806,-0.0336578658412,0.037739720073,0.998717364636,"[0.40612404265579816, 0.022819326233524242, 0.02361288772569178, -0.0010669609261185695, -0.005778018638119378, 0.00504794206581944, 0.022819326013337644, 0.20499635772847588, -0.040396598373142384, 0.022906365552631886, -0.0010027014023371865, 0.0013320619698092239, 0.023612887769542675, -0.04039659838714521, 0.19229511141602915, 0.002509009693407912, -0.0011433777404057548, 0.002070525596761, -0.0010669609824450936, 0.022906365555792788, 0.0025090096932107184, 0.008549708351734143, -6.080738015773437e-05, 0.0004559280552090761, -0.005778018629329333, -0.0010027014341030447, -0.0011433777439790868, -6.0807392474031657e-05, 0.003065387824630465, 0.00028693757864046234, 0.005047942031281218, 0.0013320619391434033, 0.0020705255957108536, 0.00045592804826454387, 0.0002869375800391732, 0.002762854227023159]"
1534834143753279839,,28,,1534834143,637171758,"""map""",,,,18.4519462585,-0.207597151399,1.13081240654,,0.00336078597061,-0.0319147064087,0.0387314801403,0.998734187131,"[0.4076040620481387, 0.02340893128408568, 0.024997399121739837, -5.725701204679495e-05, -0.005465729630497475, 0.004201292288037831, 0.023408931439925673, 0.21667130169534748, -0.0314170938610863, 0.02759409277775832, -0.0008879017600418792, 0.0019292148014506735, 0.024997399121010844, -0.03141709391453278, 0.19128603788210513, 0.004930449729701153, -0.001883964673521037, 0.001718885892002658, -5.725698197774449e-05, 0.02759409275401145, 0.004930449763173622, 0.010424380023257894, -0.00012803746075355587, 0.00047180178541917365, -0.005465729606315096, -0.0008879017819882522, -0.0018839646801922883, -0.00012803747215772696, 0.0031282496029165973, 0.0003923953931542951, 0.0042012923106634174, 0.001929214787262591, 0.0017188858866453167, 0.0004718017759017124, 0.0003923953907966647, 0.003084393425819136]"
1534834144308868489,,29,,1534834144,182496610,"""map""",,,,19.1397666931,-0.193324327469,1.1935852766,,0.0047849366361,-0.0314020431012,0.0390009184163,0.998734164751,"[0.39924788619498425, 0.02303327126794475, 0.02423135725196806, -0.0003049134900660534, -0.004667754328261133, 0.004749112671149595, 0.02303327121654641, 0.20820890065815925, -0.03797244009472722, 0.023196478346443294, -0.0006775400252417395, 0.0016886348104817952, 0.024231357284941364, -0.03797244003784158, 0.19707852340598, 0.0028571062964579037, -0.0020219838620319773, 0.001853742304891316, -0.0003049134737048576, 0.023196478366340673, 0.002857106293578096, 0.008905838587867232, -1.4179152540715392e-06, 0.0004456542565364486, -0.004667754314403341, -0.0006775399966840249, -0.002021983850543717, -1.4179046807429197e-06, 0.0029927860246379123, 0.0002950113442868499, 0.004749112695156494, 0.0016886348212653475, 0.0018537423075909902, 0.00044565425771266737, 0.0002950113408023044, 0.002704700566546193]"
1534834144846720311,,30,,1534834144,727998445,"""map""",,,,19.8854408264,-0.178786799312,1.25695753098,,0.00752459604829,-0.0322893914661,0.0387377463329,0.998699236309,"[0.3983577146925269, 0.0209795727631025, 0.027878260214759414, 0.00046235001294856436, -0.005050649632000277, 0.004168760565566477, 0.020979572674344072, 0.2094740046721219, -0.033681568538534594, 0.022271377418473664, -0.0009886688042704869, 0.0016385656387793712, 0.027878260332672405, -0.033681568517484696, 0.19048517341721832, 0.003143753655870003, -0.0018327162647395175, 0.0018352444594492328, 0.00046234999854935326, 0.0222713774267425, 0.0031437536322492282, 0.00846724786561291, -5.145682337239637e-05, 0.0004529657147576008, -0.005050649624907629, -0.0009886687910587507, -0.0018327162733799587, -5.145682013929371e-05, 0.002927342800024093, 0.0003302684240207477, 0.004168760547226003, 0.0016385656378446036, 0.001835244458879204, 0.0004529657132133227, 0.00033026842363350034, 0.0027225479635471944]"
1534834145359790541,,31,,1534834145,239375506,"""map""",,,,20.5253944397,-0.161018282175,1.31213641167,,0.0117888089746,-0.0294080753366,0.0393498067145,0.998723094014,"[0.41324152756573806, 0.018369755544667108, 0.024739310442312812, 0.00048743299768861113, -0.005141223483154779, 0.0033491524913365307, 0.01836975556440036, 0.2024005286148274, -0.026117829159132744, 0.022329635338007248, -0.0018741245217716023, 0.001065772287281642, 0.024739310285140603, -0.026117829228135454, 0.18203724960711548, 0.004161470685062721, -0.0011492018317002535, 0.0020280948814323735, 0.00048743300414307575, 0.0223296353438836, 0.004161470697365522, 0.00885262191741733, -0.00027376449361946986, 0.0004140508318068045, -0.005141223481935919, -0.0018741244978531357, -0.001149201840300096, -0.0002737644852045769, 0.002915235522142882, 0.00032759989464492827, 0.003349152508952382, 0.0010657722828627066, 0.0020280948832184405, 0.0004140508304278192, 0.00032759989545785053, 0.0026969834943454023]"
1534834145908285603,,32,,1534834145,784537825,"""map""",,,,21.2347793579,-0.149286672473,1.35405039787,,0.0102378652289,-0.0233805744509,0.0398737832855,0.998878669877,"[0.4063722565473074, 0.014600287799493614, 0.02342945734897637, 0.001106549665625804, -0.005401027128529545, 0.0034131384596068413, 0.014600287838747027, 0.18657290419544367, -0.02779567436027822, 0.01930303686533472, -0.002575145242429331, -0.00020313398793915448, 0.023429457515286377, -0.02779567438355169, 0.18483712972620456, 0.0026375531909111263, -0.0006376247403905836, 0.0018516941042512204, 0.0011065496960492572, 0.01930303687279872, 0.002637553189014468, 0.007677236130793777, -0.00052103428509843, 0.00017712975909797344, -0.005401027143038078, -0.0025751452141933844, -0.0006376247333558814, -0.0005210342746759, 0.0029393402330867126, 0.00026842357134181745, 0.003413138464671581, -0.00020313396786759955, 0.0018516940940511233, 0.00017712976435699785, 0.000268423569602174, 0.0024159695031059406]"
1534834146447128358,,33,,1534834146,329889736,"""map""",,,,21.993019104,-0.135542422533,1.40222084522,,0.0128891077491,-0.0155181273051,0.0395655042955,0.999013332044,"[0.40966069826594637, 0.010128866134553183, 0.025940490207586323, 0.0003080761811825589, -0.0050320404402462455, 0.0031829159451407948, 0.010128866293260312, 0.18448169559752997, -0.01621274902231394, 0.020795870380863713, -0.0022193878615821296, -0.0003135535291577441, 0.025940490138212327, -0.016212749108992255, 0.18206329148764977, 0.00478121186988017, -4.618631588626936e-05, 0.0019642999971607247, 0.0003080762193778822, 0.02079587037132571, 0.004781211899727743, 0.008644447765314457, -0.00041231442589325333, 0.0001841395509650125, -0.005032040436807271, -0.002219387835805206, -4.618631473854347e-05, -0.0004123144161201896, 0.002684356455615545, 0.0002563051826979884, 0.0031829159373645824, -0.0003135535514039062, 0.001964299992355812, 0.0001841395449475125, 0.00025630518295265673, 0.0023869570197207926]"
1534834147006790737,,34,,1534834146,875739798,"""map""",,,,22.8269023895,-0.130188152194,1.46413195133,,0.0146729177602,-0.00904068907138,0.0402314198639,0.999041761303,"[0.4063162871785616, 0.002639809862468911, 0.0214930934040676, -0.00015164077515235835, -0.00523789890510958, 0.00033009943879613033, 0.002639809823482361, 0.18501348367938328, -0.0026641664316342027, 0.02333994773715309, -0.0024782067927347504, -0.0010070550915043171, 0.021493093497906717, -0.002664166375025038, 0.18524864426759047, 0.01049387159945722, 0.0008626027167640455, 0.00221331365954403, -0.00015164079437975087, 0.023339947733431003, 0.010493871585574792, 0.010080179152220956, -0.00038455256153033344, 0.0002059903900926705, -0.005237898920488199, -0.002478206823289301, 0.000862602702641718, -0.0003845525767841105, 0.002800344701213356, 0.0003523565286558594, 0.0003300994337345658, -0.0010070550951859726, 0.002213313650381375, 0.0002059903866502227, 0.00035235652730331653, 0.002408704057208409]"
1534834147546680661,,35,,1534834147,421177335,"""map""",,,,23.6853466034,-0.10531552881,1.51574277878,,0.0148999245106,-0.0194550637842,0.0408243803793,0.998865773279,"[0.3756710640952005, -0.007265836755034547, 0.015861754667918226, 0.0003103713361909447, -0.005078392118369834, -0.00019440668571579043, -0.00726583667315859, 0.16839938281143993, -0.00529577882530662, 0.020242419620043025, -0.0016580398600177506, -0.0009192543995084965, 0.01586175472599453, -0.005295778815221323, 0.19177874398247638, 0.008184924493503732, 0.0009474815515850687, 0.0016346535320260944, 0.0003103713448743553, 0.020242419621586526, 0.008184924509559044, 0.009172111846845056, -0.00021931602842912323, 0.0003518295827707413, -0.005078392121903527, -0.0016580398617261143, 0.0009474815463274915, -0.00021931603148334664, 0.002825814363166758, 0.00031918331765192013, -0.00019440669809896424, -0.0009192543783927436, 0.0016346535344485323, 0.00035182958968173623, 0.0003191833180246656, 0.002337459117159511]"
1534834148106102479,,36,,1534834147,972838346,"""map""",,,,24.5993843079,-0.0776685625315,1.55722749233,,0.0155454497458,-0.0320158805936,0.0417295215585,0.998494855818,"[0.3609418290847884, -0.021524903288341474, 0.015535581839835515, 0.0004981671515446224, -0.005066705404489242, -3.397220232818826e-05, -0.021524903353964807, 0.16856379296424523, -0.01049293197976363, 0.018226753243683787, -0.0009986821205689013, -0.0016892173362635262, 0.015535581634916407, -0.010492931979134376, 0.20386827740451685, 0.005674772212930217, 0.000249996871119031, 0.0011005918382272144, 0.0004981671082143092, 0.018226753231183817, 0.005674772217490184, 0.008268810649170693, -5.5628174929903065e-05, 0.0005647680204261203, -0.005066705418867843, -0.0009986821333453147, 0.00024999684362529034, -5.5628185068382565e-05, 0.003106893792325228, 0.00027482760671959807, -3.397221833620755e-05, -0.001689217336383561, 0.001100591844992251, 0.0005647680191971082, 0.0002748276078428025, 0.0024198177124088284]"
1534834148640727979,,37,,1534834148,518877550,"""map""",,,,25.5626754761,-0.0510770827532,1.6347142458,,0.0140046928456,-0.03931015329,0.0413854509182,0.998271416714,"[0.36246045201999855, -0.030515948228617758, 0.011794302927854204, 0.0005135960073083905, -0.005102949084257449, 0.00042866413807706946, -0.030515948193461626, 0.15744125701454745, -0.014551922394637313, 0.014334803673830367, -0.0009473983980453365, -0.0018525208276586966, 0.01179430288513498, -0.01455192244459811, 0.20125095377549684, 0.003708804361157896, -0.00027684219325212954, 0.0007512526167405189, 0.0005135960293025358, 0.014334803682249087, 0.003708804377439282, 0.006645625622294695, -0.0001232193754175887, 0.00047874620027759946, -0.005102949079716558, -0.0009473983630231405, -0.0002768421961617625, -0.00012321936181309488, 0.0029962439877067267, 0.00026699013375800385, 0.0004286641521277519, -0.0018525208054728523, 0.0007512526238165919, 0.0004787462089445413, 0.00026699013036585043, 0.0022581003382991416]"
1534834149156988444,,38,,1534834149,24093956,"""map""",,,,26.4047737122,-0.0235271360725,1.7167224884,,0.0155955938936,-0.0389411146812,0.039591573495,0.998335063258,"[0.35479226138266196, -0.035370685218598465, 0.009291860778662593, 0.0012942174038174834, -0.0057030001427160705, 0.0015565958558504543, -0.03537068519174627, 0.1619558966286768, -0.01393309995341654, 0.014668093526743742, -0.0009836559654016414, -0.0019043227202757945, 0.009291860888782161, -0.013933099874709762, 0.1974495111010753, 0.004009586983845483, 0.00021993798731809164, 0.0004945649529937082, 0.0012942173985881927, 0.014668093512454499, 0.004009586950497516, 0.006739367067467535, -0.0001917330339474208, 0.0004146527488005113, -0.005703000133665296, -0.0009836559923334849, 0.00021993797866141495, -0.00019173304530293656, 0.0031155465740259213, 0.0002442146457512004, 0.0015565958556225694, -0.0019043227334815912, 0.0004945649501571231, 0.00041465274389500083, 0.000244214646031963, 0.00232385476988712]"
1534834149693929097,,39,,1534834149,569279747,"""map""",,,,27.3148059845,-0.00834302511066,1.81340122223,,0.0163453582401,-0.037937768955,0.0388981985395,0.998388937245,"[0.3637884845287557, -0.04053637379370807, 0.005412609102161776, 0.0006028167244944868, -0.005590939941206724, 0.0013596361194044082, -0.04053637367409985, 0.16028623054446348, -0.012273326396972404, 0.01356034241154258, -0.00111615397212853, -0.0017885880006994245, 0.00541260905739358, -0.012273326331215091, 0.19952814412424127, 0.004880431379191095, -0.00014341317950341748, 0.0007181046655732356, 0.0006028167391638089, 0.013560342415547893, 0.0048804313663102636, 0.006265473914029095, -0.0003233988490208118, 0.0004899306406535445, -0.00559093994009519, -0.0011161539517117577, -0.00014341317532735762, -0.0003233988405626226, 0.002860926223286027, 0.00018195151924051817, 0.001359636105671282, -0.0017885879962836553, 0.0007181046697154613, 0.0004899306455524783, 0.00018195151619696434, 0.002314941052127914]"
1534834150266024770,,40,,1534834150,114673665,"""map""",,,,28.1652107239,0.0131283849478,1.8897331953,,0.0150214525147,-0.0342986695845,0.0372866546212,0.99860285224,"[0.36982104526410203, -0.0324208852564163, 0.006650435569149456, 0.0014482545384765183, -0.005930845275008951, 0.001950513519271755, -0.03242088528408661, 0.1536457575408246, -0.011890697333745141, 0.012016800076315129, -0.0013267819279513052, -0.001600645025975017, 0.00665043550035286, -0.011890697294109132, 0.1928622545567084, 0.004356893254930013, -4.838624998283565e-05, 0.0006527702797626874, 0.0014482545052044056, 0.012016800075985717, 0.004356893245425079, 0.005559660361782556, -0.00037429375869340784, 0.0003877944121699689, -0.00593084526816016, -0.001326781940327107, -4.838624810184465e-05, -0.00037429376599318396, 0.003021682852370591, 0.00016983480971268644, 0.0019505135102368828, -0.0016006450297568803, 0.0006527702722742783, 0.0003877944086079176, 0.00016983481130142323, 0.0023978508000041124]"
1534834150763192728,,41,,1534834150,611527365,"""map""",,,,28.931848526,0.0250170566142,1.97686886787,,0.0178979475272,-0.033431096639,0.0364296297311,0.998616498325,"[0.38241806174124765, -0.03213488754824809, 0.008638011144563312, 0.0008668915482531339, -0.005976310695654913, 0.002063224405378913, -0.032134887598148046, 0.15366835304752394, -0.008552866322201364, 0.012433403769447314, -0.0010649559244703566, -0.001291913077013726, 0.008638011237471776, -0.008552866317534399, 0.19102721725722008, 0.005430107146424316, -0.0004417443313475589, 0.000793013188728183, 0.0008668915500185593, 0.012433403772742572, 0.005430107129615061, 0.005789608829324962, -0.00027691046303384944, 0.00036968909891365, -0.0059763107029073585, -0.0010649559141829553, -0.0004417443229468514, -0.00027691046086460543, 0.0030246570249371834, 0.00015475314955305049, 0.0020632243865023503, -0.0012919130669155462, 0.0007930131805362347, 0.0003696890989521128, 0.00015475315224057425, 0.0025331452095082346]"
1534834151329170817,,42,,1534834151,171782059,"""map""",,,,29.7907791138,0.0353076085448,2.05151963234,,0.0184091975564,-0.0346812579182,0.0344357167737,0.998635314544,"[0.38119938617171323, -0.029235427090408748, 0.009065398192895712, 0.001078035388722545, -0.006119916950191052, 0.002398807255163649, -0.029235427124036744, 0.15779196254620786, -0.0029971524368852887, 0.01339907881130609, -0.0011746036613263487, -0.0008128413348421263, 0.009065398111520897, -0.0029971524367326126, 0.18983952562071926, 0.008095882933916948, -0.0006440020806347697, 0.0011170436219619807, 0.0010780353716630631, 0.01339907880940627, 0.008095882941499332, 0.006219388916360456, -0.0003505711650980909, 0.0005379830729237948, -0.006119916952453257, -0.0011746036536563233, -0.0006440020754548477, -0.00035057116063826364, 0.0029062627471842712, 0.0001090164316912727, 0.002398807281128883, -0.0008128413375095162, 0.0011170436270460788, 0.0005379830730641693, 0.00010901642999779232, 0.002441315854290662]"
1534834151898328295,,43,,1534834151,717240952,"""map""",,,,30.6963253021,0.0442983992398,2.11862587929,,0.0192962520142,-0.0360768495822,0.0297391051292,0.998720035366,"[0.37103709842986077, -0.026881162388538944, 0.00951033914288877, 0.0005278554368357354, -0.006068766151196846, 0.0026239242605487468, -0.026881162340250255, 0.1499727704893511, -0.0054232069532441285, 0.010894943708491405, -0.0008001145663379689, -0.0006585096862355681, 0.00951033910201317, -0.005423206943633554, 0.17863309931643112, 0.005610952510634393, -0.0009106026499217624, 0.0009273330107986388, 0.0005278554326378479, 0.01089494371284191, 0.005610952523592467, 0.0049757447509670505, -0.00024248478373046286, 0.00041350263997975056, -0.006068766149340223, -0.0008001145762705711, -0.0009106026503802083, -0.00024248478432788666, 0.0027055840246740133, 2.771012822513837e-05, 0.0026239242736684604, -0.0006585097023817423, 0.0009273330083456771, 0.00041350263668014307, 2.7710122662282188e-05, 0.0022946352819540254]"
1534834152383710840,,44,,1534834152,263007178,"""map""",,,,31.6433334351,0.028920006007,2.21296811104,,0.0203706262225,-0.0356626986786,0.0256283138498,0.998827522585,"[0.38474974527404043, -0.019591945359910375, 0.015923266358074055, 0.0006474157616888267, -0.00559068584175602, 0.003635604434749842, -0.019591945422520442, 0.15402830631980663, -0.004228948171281066, 0.011714179526662849, -0.0009268978597295914, 0.0003176490345840623, 0.015923266374711184, -0.0042289480773605075, 0.1770205785771398, 0.006556967235952027, -0.0016521357551391922, 0.0010615808951876637, 0.0006474157298928408, 0.011714179520525246, 0.006556967194014419, 0.005445345347168631, -0.0003270791605917444, 0.00047042818357761096, -0.0055906858259752445, -0.0009268978755849123, -0.0016521357563557737, -0.0003270791677067417, 0.002849901501059495, 9.794046889435053e-05, 0.0036356044356038713, 0.00031764904074194436, 0.0010615809007717557, 0.00047042818830487316, 9.794046985033111e-05, 0.002554768122140954]"
1534834152951453591,,45,,1534834152,808231840,"""map""",,,,32.5603141785,0.0205480959266,2.2839884758,,0.0224492534697,-0.0314852971565,0.0202663890726,0.999046519321,"[0.3879734759086459, -0.01297131121947905, 0.018137959178942016, 0.0010252592270680264, -0.006075108130194599, 0.0032788325777517386, -0.01297131124256849, 0.1553075468772126, -0.0022581532917359485, 0.012890721700911212, -0.0010022477839166032, 0.0005117269561548219, 0.018137959179544444, -0.002258153184973786, 0.182904309061624, 0.007670100223886679, -0.0016130429917141035, 0.0008998719532583316, 0.0010252591995239025, 0.012890721717506796, 0.007670100195691249, 0.005868640761551979, -0.00041605247041096613, 0.00041644977929241705, -0.006075108153521329, -0.0010022477995179821, -0.001613043002310654, -0.0004160524779170097, 0.002803585559777774, 4.9348878857014415e-05, 0.003278832566712982, 0.0005117269703763874, 0.0008998719480123045, 0.00041644977934094887, 4.934888091862572e-05, 0.0024866170749818024]"
1534834153486793489,,46,,1534834153,353279792,"""map""",,,,33.4624214172,-0.0156451426446,2.36222457886,,0.0231545142885,-0.0285175318411,0.0125772322977,0.999245940458,"[0.3928817067025635, -0.005139780229754383, 0.018600250034251375, 0.0010602337463739813, -0.006026973420961293, 0.004042559110413632, -0.005139780214050006, 0.1541184129934497, -0.0036485796701234132, 0.01122321916341741, -0.0011126980192909248, 0.0009227731144899764, 0.01860024998050683, -0.003648579653395018, 0.17972859631077676, 0.006121813343863934, -0.0015040309265478796, 0.00100393299525357, 0.0010602337460186594, 0.011223219163810173, 0.006121813339990764, 0.0050216377461359965, -0.00036726203391692323, 0.00032548014833250633, -0.006026973413820754, -0.0011126980105653024, -0.00150403093333691, -0.0003672620315677744, 0.0028009970669402883, -1.6198297262786983e-05, 0.004042559090771952, 0.0009227731078037546, 0.0010039329936410073, 0.00032548014651411996, -1.6198295675129064e-05, 0.002498470477228087]"
1534834154037534057,,47,,1534834153,905393642,"""map""",,,,34.4320793152,-0.0616044849157,2.43626117706,,0.0252104461283,-0.0268664144512,0.00340538900353,0.999315303107,"[0.3718316308656657, 0.0018268560079819412, 0.024691993483774058, 0.0010247625931408342, -0.005768572351189585, 0.003167788097224157, 0.0018268559301959871, 0.1588770862825108, 0.002190554735199316, 0.013206756570202566, -0.0010286882985228118, 0.002004530451311802, 0.024691993509210936, 0.0021905547439331876, 0.19369645492252174, 0.009329662657425585, -0.003110644205140672, 0.0012103419562564449, 0.0010247625809578686, 0.013206756565106748, 0.00932966264996873, 0.006159809012196099, -0.0004249113918835877, 0.00037354201391625897, -0.005768572343978571, -0.001028688290222279, -0.0031106441886677434, -0.0004249113891273736, 0.0027872521657075497, 4.229211416056777e-05, 0.00316778810476628, 0.0020045304447066196, 0.001210341965802505, 0.0003735420132870964, 4.229211155984044e-05, 0.0025334514836717215]"
1534834154555419882,,48,,1534834154,410704626,"""map""",,,,35.2902488708,-0.130009636283,2.50631070137,,0.0295915881523,-0.0266908535665,-0.00620220547391,0.99918640836,"[0.36613730222459506, 0.002064361180455757, 0.026696852536605885, 0.001107823227665542, -0.005708245357557379, 0.0029420325380359854, 0.002064361186219375, 0.1610815178536618, 0.0016873134586860292, 0.013272519146494341, -0.0009557302514340793, 0.0028505454639087113, 0.026696852658104682, 0.001687313461007822, 0.2035416289291289, 0.009792790043418341, -0.002960873137703972, 0.001087911395454972, 0.001107823243113648, 0.013272519140040755, 0.009792790046531528, 0.006141047470178959, -0.00039789708505095725, 0.00031811442750274364, -0.005708245366270011, -0.000955730241106486, -0.0029608731255283518, -0.00039789708130848087, 0.002691284695949919, 3.624713213652067e-05, 0.0029420325456240206, 0.0028505454736752894, 0.0010879114088838395, 0.0003181144329720686, 3.624713029172677e-05, 0.0023378738394512493]"
1534834155085313397,,49,,1534834154,956223821,"""map""",,,,36.2393684387,-0.228429496288,2.57158255577,,0.0274742275266,-0.0286666585928,-0.0161630416688,0.999080645134,"[0.3708606557353441, 0.005905457739870032, 0.027342643218919147, 0.0002804401281032604, -0.006593760067884691, 0.002221910380763818, 0.0059054576372010075, 0.1624961882559687, 0.008413631218865845, 0.014831272949623657, -0.000769762160387526, 0.0034442605940846927, 0.02734264319506896, 0.00841363128961429, 0.21645025603380272, 0.012158711103163258, -0.00364995515067333, 0.0012420329529914443, 0.000280440097147672, 0.014831272970746406, 0.012158711081936007, 0.006993725131368757, -0.00034630126993326983, 0.00033244483440308606, -0.006593760044575757, -0.0007697621701716074, -0.003649955158695143, -0.0003463012766897013, 0.0030269879704171924, 2.297604059218711e-05, 0.0022219103606517577, 0.0034442605796655506, 0.0012420329503830764, 0.00033244482872661613, 2.2976037903068316e-05, 0.002698383868610117]"
1534834155629893872,,50,,1534834155,501260002,"""map""",,,,37.1744880676,-0.343373656273,2.64380860329,,0.0282976737651,-0.0316663991802,-0.0273575829539,0.998723198456,"[0.3626599452573161, 0.012693118095782576, 0.025505771407724233, 0.00028009028711759227, -0.00643326271271926, 0.0019597648712607243, 0.012693118142052045, 0.168689788738335, 0.00866614649721557, 0.016982281602206002, -0.0010191250549343423, 0.004239646641680067, 0.025505771499472942, 0.008666146487301405, 0.22885309893862618, 0.01363600474236225, -0.002054711899568341, 0.0012121535510471633, 0.00028009030378890233, 0.01698228162079904, 0.013636004772833303, 0.007997116205364654, -0.0004495185033537417, 0.0004716428114178007, -0.006433262721578905, -0.0010191250589728128, -0.002054711906178914, -0.00044951850475479627, 0.0031636699807692814, 1.8549553354528345e-05, 0.0019597648722105227, 0.004239646610314087, 0.0012121535373767634, 0.000471642802022599, 1.8549554219057767e-05, 0.002593867757592271]"
1534834156172445173,,51,,1534834156,46823323,"""map""",,,,38.1066818237,-0.481023043394,2.71050572395,,0.029267274403,-0.0353583642402,-0.0382446241145,0.998213692477,"[0.3679776814740398, 0.016775606219407328, 0.03169913391965254, 0.0002643800191873805, -0.006884339530245589, 0.0010227813020782957, 0.016775606322216238, 0.17726231046768098, 0.0028360010811129353, 0.018185978617678768, -0.0007523939625249832, 0.004849708105142495, 0.03169913388352883, 0.0028360009100925764, 0.2249423795431484, 0.01111262524519238, -0.003612693404124698, 0.001090721462479912, 0.0002643800489148305, 0.01818597859657429, 0.011112625305082113, 0.008119093582307259, -0.0004125689875997778, 0.0005423093583108218, -0.0068843395351303556, -0.0007523939360610292, -0.0036126934243289523, -0.0004125689774001832, 0.0033098275652049176, 8.995430613029528e-05, 0.0010227812965257579, 0.004849708116899676, 0.0010907214701653207, 0.0005423093637692888, 8.995430908868394e-05, 0.0026979075856326997]"
1534834156718118872,,52,,1534834156,593005778,"""map""",,,,39.0192985535,-0.625040531158,2.78795814514,,0.0260191819832,-0.0383142477947,-0.0482565971224,0.997760642078,"[0.3452371776143899, 0.016581928253736496, 0.024957557810837343, 9.796213070710473e-05, -0.006504716641801555, -1.5838918313501613e-05, 0.016581928332361835, 0.1836834033492893, 0.007912845465241155, 0.020188499803780735, -0.0008940836368375902, 0.0055904013088831335, 0.024957557829815687, 0.00791284533702285, 0.2204250298788162, 0.013023799058830993, -0.0030541478909571497, 0.00106254210926224, 9.796214096421474e-05, 0.02018849978786573, 0.013023799102671997, 0.008943917655292908, -0.00044084595466211085, 0.0006674187015306911, -0.006504716652018927, -0.0008940836056191834, -0.003054147862850702, -0.00044084594304858224, 0.0031715327615955643, 6.171997812940082e-05, -1.5838909541892133e-05, 0.005590401332125861, 0.0010625421275652534, 0.0006674187086940936, 6.171997457340727e-05, 0.002603233016810922]"
1534834157269305265,,53,,1534834157,104076767,"""map""",,,,39.8480796814,-0.776239693165,2.8627603054,,0.0259282918535,-0.0404137373425,-0.0576760807122,0.997179972478,"[0.35230406936083064, 0.014617116508380042, 0.024496844682515683, 4.311002756059579e-05, -0.006939418514100584, -0.0005702715652643719, 0.014617116564191252, 0.19221497663902737, 0.010630475164122079, 0.022356932339808656, -0.0009550586511670256, 0.005304105080131156, 0.024496844734012656, 0.010630475127668317, 0.21444788693940445, 0.014603095070101943, -0.0028991463300548767, 0.0013248977018149798, 4.3110047368131755e-05, 0.02235693232973293, 0.014603095079668048, 0.009699808314083092, -0.000397585367933924, 0.0007806171222405949, -0.006939418511315815, -0.0009550586545393452, -0.0028991463110058444, -0.0003975853652098996, 0.003234269558033658, 0.00012644645862594145, -0.0005702715666784721, 0.005304105099236136, 0.00132489771992238, 0.0007806171316892625, 0.00012644645998461152, 0.0025734709074873973]"
1534834157795645237,,54,,1534834157,649545755,"""map""",,,,40.7406387329,-0.966477513313,2.94999861717,,0.0242004313794,-0.043583828479,-0.0673768217511,0.996481382454,"[0.33845943050065885, 0.008010677281488765, 0.022243424602112913, -0.0005477451608690264, -0.0057071320419039145, -0.0014576788969240246, 0.008010677118672373, 0.19905888798516025, 0.007811234143996249, 0.023780650701844187, -0.0011314786873756076, 0.005607047401702244, 0.022243424489547945, 0.007811234056479016, 0.20333292631615654, 0.014902066939217747, -0.002950405672112142, 0.0009117727121429882, -0.0005477452231855684, 0.02378065068419183, 0.014902066987784745, 0.01052174893555556, -0.0006399935362916004, 0.0008596365440546804, -0.005707132047353615, -0.0011314787136885223, -0.002950405706852489, -0.0006399935480660729, 0.003017726939925326, 0.00011287727098494714, -0.0014576789037654306, 0.005607047365941072, 0.0009117727045256215, 0.0008596365374098584, 0.00011287727281482575, 0.0026125995711497826]"
1534834158285787163,,55,,1534834158,138623827,"""map""",,,,41.539024353,-1.13986885548,3.03256320953,,0.0225826913639,-0.0457658631734,-0.0747205145073,0.995897752515,"[0.33595104356717975, -0.0005244137029304512, 0.02701956430107507, 0.0005949905942071632, -0.005720666240985383, -0.0013973732819552692, -0.0005244138022303544, 0.19981521588239448, -0.0019243679956922222, 0.022676156296108457, -0.0008289544177349819, 0.005318428612078392, 0.027019564259933588, -0.0019243680106453085, 0.20282422400969755, 0.012774113153979654, -0.004316315663056179, 0.0005144754770076568, 0.0005949905535067453, 0.022676156309955734, 0.012774113163610186, 0.010084224911429497, -0.000550361097369295, 0.000796995310296982, -0.005720666246845956, -0.0008289544503024571, -0.004316315679642662, -0.0005503611101666794, 0.0031243300712468043, 8.056889025595842e-05, -0.0013973732798508065, 0.005318428612144877, 0.0005144754836342357, 0.0007969953088379948, 8.056888978888341e-05, 0.0024100222599814872]"
1534834158843227120,,56,,1534834158,691270788,"""map""",,,,42.409072876,-1.35984539986,3.1295466423,,0.0207658052145,-0.0480198709257,-0.0836212937948,0.995123289499,"[0.33836412034456304, -0.007003844425683805, 0.02267732070607248, 0.0006864164880773608, -0.005467067155177915, -0.0018297962339839902, -0.0070038444085451955, 0.2107310847571635, -0.0018428785174346702, 0.023470788229955734, -0.0015143916766289464, 0.005368186017931822, 0.022677320484471283, -0.0018428783729537083, 0.19437440047043517, 0.013151898936920016, -0.005010643928735991, 0.0007224204876300874, 0.0006864164718717737, 0.02347078825099548, 0.013151898900714387, 0.010063634385827497, -0.0008482829136968104, 0.0009689972584121769, -0.005467067150540203, -0.0015143916645049883, -0.005010643913195616, -0.0008482829073856346, 0.0030761799085795814, 8.842286195266722e-05, -0.0018297962321290686, 0.005368186020876541, 0.0007224204874386088, 0.0009689972559735189, 8.842286028314221e-05, 0.002501668673641432]"
1534834159377484251,,57,,1534834159,236819049,"""map""",,,,43.2444648743,-1.56297647953,3.22237181664,,0.022010877291,-0.0494051578385,-0.0919992241214,0.994289094822,"[0.3418602567586744, -0.014655003123498466, 0.02067223326408012, 0.001605050805701209, -0.005921446861554413, -0.0016877566406429856, -0.014655002977776745, 0.21532438893694597, -0.004777772032503471, 0.02330839305720659, -0.002434716508804836, 0.004919277880372498, 0.02067223325684733, -0.004777772097183663, 0.1936989990003731, 0.013578424849553959, -0.004791171818751408, 0.0006272439585303087, 0.001605050830833186, 0.023308393028648053, 0.013578424834452287, 0.010242091108733972, -0.0012339995641430727, 0.0009594007557419521, -0.005921446860476278, -0.002434716518745077, -0.004791171833928373, -0.0012339995707539423, 0.0034118812957761218, 3.986117396953192e-05, -0.001687756647985925, 0.004919277923989328, 0.000627243968019786, 0.0009594007675304601, 3.986117287315254e-05, 0.00248168488634963]"
1534834159921023308,,58,,1534834159,782084874,"""map""",,,,44.0477180481,-1.79181063175,3.31061697006,,0.0181576102266,-0.0480773001081,-0.100599871332,0.993598775334,"[0.35019122048166773, -0.025781738406418685, 0.018639787321721328, 0.002283030046541831, -0.006008277022980659, -0.0021892954336176222, -0.025781738234311985, 0.21834376850493137, -0.01009846400149293, 0.022157170065283824, -0.0025212516055145013, 0.005044975239580528, 0.018639787403284685, -0.010098464011110265, 0.1952151037117146, 0.012432342866042459, -0.005220636465225689, 0.0003983683050788625, 0.0022830301114833496, 0.022157170069487538, 0.012432342880272586, 0.009711355455504295, -0.0012605827106824165, 0.0009301905688006069, -0.006008277023446163, -0.002521251586826846, -0.0052206364420229485, -0.0012605826991640096, 0.0033800344565365027, 4.9787712184652705e-05, -0.002189295436928857, 0.005044975245507277, 0.000398368290092407, 0.0009301905636871576, 4.978771519819425e-05, 0.0023554154154208523]"
1534834160476368536,,59,,1534834160,342871241,"""map""",,,,44.8437385559,-2.03755998611,3.40766215324,,0.0198610427355,-0.0457029456973,-0.109594317036,0.99272648747,"[0.3535741675080081, -0.030931799847053895, 0.016330680599331453, 0.0028945843517454266, -0.005777186357499162, -0.0022101541674456712, -0.030931799935451715, 0.21679560617169807, -0.008521027558140496, 0.021514263879205343, -0.002655669947296544, 0.0042285675501834786, 0.01633068055741336, -0.008521027496042556, 0.1928560866745367, 0.012957021335504793, -0.005507583125593401, 0.0005386298281486223, 0.002894584309557851, 0.021514263900526246, 0.01295702132613961, 0.009660884915801396, -0.0013337131601548343, 0.0009044016550486678, -0.005777186330123005, -0.0026556699860705744, -0.005507583122213052, -0.001333713170885946, 0.0032341743188065825, 1.565662117363445e-05, -0.0022101541822276945, 0.0042285675238972285, 0.0005386298081560879, 0.0009044016415627593, 1.5656628368696517e-05, 0.0024530495151672458]"
