rosbagTimestamp,header,seq,stamp,secs,nsecs,frame_id,pose,pose,position,x,y,z,orientation,x,y,z,w,covariance
1556684032372532238,,12,,1556684032,89259026,"""map""",,,,-37.4017410278,8.01564979553,-2.90647912025,,-0.0298409657228,-0.0281544377529,-0.146354491706,0.98838109805,"[0.24324270415404967, 0.0028517986217844763, 0.007205829667610474, -0.0001901148864938506, 0.0018027904818877067, -0.0011217213779663498, 0.0028517986146657727, 0.23115892549349137, 0.007986224221413079, 0.0033510086297337, 5.4046025551945275e-05, -0.000924869660506596, 0.007205829651016783, 0.007986224222366526, 0.12561980869718026, 0.0024201602467251375, -0.0005425419753411261, 0.0001932939586636718, -0.0001901148870601762, 0.003351008630200585, 0.0024201602469887634, 0.001033181506292835, 1.6071103888689134e-05, 5.049235888298546e-05, 0.001802790485327428, 5.404602727666023e-05, -0.0005425419730612968, 1.6071103797958803e-05, 0.0005689563312956079, -6.771186082510412e-06, -0.0011217213801675739, -0.0009248696552281284, 0.000193293959060935, 5.049235874467305e-05, -6.771185981318674e-06, 0.0006055013681283713]"
1556684032952794916,,13,,1556684032,682799740,"""map""",,,,-37.1422767639,7.96019268036,-2.87260556221,,-0.0294783345383,-0.02759121281,-0.149041113564,0.988006342472,"[0.24313275800586984, 0.003421233835368533, 0.008110725642453544, -5.765951889259415e-05, 0.0017596551039239542, -0.0006731723136270459, 0.0034212337327635648, 0.22802833228373812, 0.00693619551280758, 0.0031423515812446785, 7.137248107740719e-05, -0.0008408288624327603, 0.008110725603035366, 0.006936195496532077, 0.12466739515480833, 0.002331031180937667, -0.00047129308510451324, 0.0001812050467998676, -5.765952125023589e-05, 0.0031423515822262276, 0.00233103117855659, 0.001003017605339907, 1.4839401045974766e-05, 4.795723260246757e-05, 0.0017596551058202384, 7.137248266425571e-05, -0.0004712930852375629, 1.4839400891702855e-05, 0.0005540382490324242, -6.684745927853106e-06, -0.0006731723187078919, -0.000840828865952411, 0.00018120504547534578, 4.795723285500839e-05, -6.684746114890158e-06, 0.000578671352447017]"
1556684033428591732,,14,,1556684033,184575119,"""map""",,,,-37.0063476562,7.91567468643,-2.85856103897,,-0.0274435587858,-0.0282630658568,-0.149523829128,0.987973010579,"[0.24501112440873377, 0.0033609213987260836, 0.008378118638442601, -8.827964944931834e-05, 0.0018415449969768256, -0.0006690055750693192, 0.003360921396313051, 0.2279776660429403, 0.0069428782015745465, 0.003186537227333124, 0.0001025610325366204, -0.0007302724422834794, 0.008378118673856799, 0.006942878167611405, 0.12394862158462626, 0.0022507801490507136, -0.0005160238895540083, 0.00020321970544241795, -8.827964714149161e-05, 0.003186537220967041, 0.002250780148963077, 0.000984998401735464, 1.7291563585896648e-05, 4.921580521371452e-05, 0.0018415449955864604, 0.00010256103098891015, -0.0005160238932599703, 1.7291562993660813e-05, 0.0005732968794635509, -8.567001003424573e-06, -0.0006690055762913922, -0.0007302724467732195, 0.00020321970572764782, 4.9215805189778075e-05, -8.567001262506302e-06, 0.0005970001111434849]"
1556684033948589867,,15,,1556684033,684282629,"""map""",,,,-37.0365715027,7.91617155075,-2.87060689926,,-0.0292373184935,-0.0298739360244,-0.149418186874,0.987890113357,"[0.24225319376309815, 0.0031552322073374983, 0.008568057417553517, -4.7510636787460284e-05, 0.001723239087650379, -0.0008897072595788489, 0.0031552321279575955, 0.23364909840575973, 0.0071661671685853716, 0.003293638779757087, 0.0001262330138043843, -0.0006306917574928698, 0.008568057432706338, 0.007166167171246508, 0.12344405849809598, 0.00246057929331409, -0.0002506956541082044, 0.00015866921099404668, -4.7510637512146796e-05, 0.0032936387801662903, 0.002460579290365724, 0.0010176129385716035, 3.353009310474997e-05, 4.957727702343374e-05, 0.0017232390883385735, 0.00012623301483968534, -0.0002506956561795945, 3.3530092934583564e-05, 0.0005458454754249463, -1.3824952694221275e-06, -0.0008897072567247044, -0.0006306917549331344, 0.0001586692099362856, 4.9577277112677324e-05, -1.3824948269372794e-06, 0.000594332086287529]"
1556684034522374672,,16,,1556684034,283092045,"""map""",,,,-37.042137146,7.9068312645,-2.86746931076,,-0.0293757175771,-0.0299392369165,-0.149409816782,0.987885316689,"[0.24500918726747858, 0.0031100153231500365, 0.009125491275215095, -1.880685148295786e-05, 0.001662776487298691, -0.0009624829264638576, 0.003110015365313822, 0.23609017970124027, 0.007330306742698597, 0.0032599372786885606, 0.00015560899774467963, -0.0005667508322965639, 0.009125491273928222, 0.007330306727520355, 0.12184257833882196, 0.0023128896731181747, -0.00019585357257433165, 0.00015211598256590473, -1.8806853293415983e-05, 0.003259937272980406, 0.002312889676894395, 0.0009909453983942631, 2.589583112201194e-05, 4.760322006901518e-05, 0.0016627764876337543, 0.0001556090032571169, -0.00019585357177977038, 2.5895832202793116e-05, 0.0005437809649080698, -3.758037763454105e-06, -0.000962482919787651, -0.0005667508337002964, 0.00015211597999103982, 4.760321952829356e-05, -3.7580375617092686e-06, 0.0006034971474560554]"
1556684035028380934,,17,,1556684034,783296276,"""map""",,,,-37.0307273865,7.92055702209,-2.86724972725,,-0.0291109881968,-0.0300170060988,-0.149349385528,0.987899917794,"[0.24744080660979617, 0.004418669890836213, 0.009406816583060919, -4.053646593014979e-05, 0.0017435927311744825, -0.0008912871065759333, 0.0044186698452894245, 0.23526581970267904, 0.007069272238040881, 0.003262058617025232, 0.00015301100581597787, -0.0008349256292574869, 0.009406816596632492, 0.007069272244492148, 0.12364671423161143, 0.0025083265845236586, -0.00036317575427823463, 0.0001932162991718219, -4.0536467689595215e-05, 0.003262058621857029, 0.0025083265852283545, 0.0010096949485069626, 2.0689072477011803e-05, 4.445260765282481e-05, 0.0017435927327005653, 0.0001530110054117041, -0.00036317575120702755, 2.0689072897775196e-05, 0.000548377385191854, -4.564071227594533e-06, -0.0008912871111071276, -0.0008349256218444407, 0.00019321629725904324, 4.445260786929425e-05, -4.5640714983965095e-06, 0.0006096099447107606]"
1556684035647488320,,18,,1556684035,390311215,"""map""",,,,-37.0226783752,7.91217374802,-2.8696513176,,-0.0293408729143,-0.0299128722446,-0.14958353616,0.98786087293,"[0.24534076391852555, 0.0038884040936750515, 0.009376736993698008, -2.666369536374555e-05, 0.0017109121888457901, -0.0008611018832942122, 0.003888404019485746, 0.23816351156700624, 0.007297981373817804, 0.003292062151514466, 0.00013297016344328765, -0.0010121998574446718, 0.00937673705119987, 0.007297981320303063, 0.12317881893494144, 0.00245118134172676, -0.00036826742701692885, 0.00018686102723965365, -2.6663693749080002e-05, 0.0032920621499422666, 0.0024511813450274478, 0.0010161739492316278, 3.372293107049435e-05, 5.052098503296301e-05, 0.0017109121890509565, 0.00013297015661083684, -0.00036826742989118914, 3.3722929314834585e-05, 0.000551214059460698, -5.1091193620102835e-06, -0.0008611018813636956, -0.0010121998543020018, 0.00018686102563125563, 5.052098452081465e-05, -5.109119684711062e-06, 0.0006277010792282475]"
1556684036276692884,,19,,1556684035,990164196,"""map""",,,,-37.0255470276,7.9283862114,-2.87075304985,,-0.0285539730712,-0.0300253930423,-0.149224718947,0.98793476801,"[0.24319642349573703, 0.0039059131576396093, 0.008338302677456865, -0.00013069037276173813, 0.0017109823664031075, -0.0009140661476538164, 0.003905913152404035, 0.2321753693434266, 0.00692254206473434, 0.003216931047941479, 0.0001702326781587765, -0.0008326440936301277, 0.008338302658753936, 0.006922542042397526, 0.12301508298177259, 0.0025240507737920924, -0.0004521260470346591, 0.00022944691550757626, -0.00013069036873565725, 0.003216931049307998, 0.00252405077223087, 0.0010050120846186324, 3.1652892874133625e-05, 4.460265050742879e-05, 0.0017109823678436596, 0.00017023267630795794, -0.00045212604535332295, 3.165289251774753e-05, 0.0005434135043731821, -1.073829737937512e-05, -0.0009140661490804599, -0.0008326440997170877, 0.0002294469148584692, 4.46026499237299e-05, -1.0738297386767028e-05, 0.0006093132258363773]"
1556684036821838470,,20,,1556684036,583704664,"""map""",,,,-37.0245895386,7.91791915894,-2.86546635628,,-0.0287890673773,-0.0299431154074,-0.149222931296,0.98793072572,"[0.24755095253464604, 0.002067915454305233, 0.00933915342956539, -1.570399521176656e-05, 0.0016998531534661127, -0.0007533200298597682, 0.002067915378792036, 0.2307591314639562, 0.007754595160392332, 0.0032634147208234596, 0.00012338294516126447, -0.00055452687741638, 0.009339153445832351, 0.007754595168357304, 0.12373220908223453, 0.0023783956271779434, -0.00043145405158883683, 0.0001581463187569695, -1.570399328778724e-05, 0.0032634147253435878, 0.002378395632819011, 0.0010052537608851875, 3.3862240042861316e-05, 4.53416762350143e-05, 0.0016998531556344735, 0.00012338294762742462, -0.0004314540525578012, 3.386224011224435e-05, 0.0005582870182712485, -4.912959017172546e-06, -0.0007533200250364469, -0.000554526886197202, 0.00015814632075738597, 4.534167606474135e-05, -4.91295919396825e-06, 0.0006063850223319086]"
1556684037335971795,,21,,1556684037,88427637,"""map""",,,,-37.0270004272,7.9240694046,-2.87336874008,,-0.0288412890897,-0.030095134067,-0.149442056438,0.987891463358,"[0.24494281294109058, 0.0033868012117220813, 0.009548402432647249, 2.4064930648251763e-05, 0.0017560698561205634, -0.0009433204206560987, 0.003386801164252142, 0.2302073761294091, 0.007145073500616545, 0.00324392083638334, 9.880952739980742e-05, -0.0007684524264829195, 0.009548402398960341, 0.007145073480308239, 0.12455886167214825, 0.002249648735768258, -0.0004175953897849705, 0.00012024234506427782, 2.4064929974089458e-05, 0.0032439208382986106, 0.002249648739569267, 0.0009908162930405149, 3.3138785356163654e-05, 4.450724294328474e-05, 0.0017560698561617156, 9.880953124216394e-05, -0.0004175953884340382, 3.313878620445476e-05, 0.0005628590569387184, -2.309429782462147e-06, -0.0009433204159391308, -0.0007684524268644326, 0.0001202423444228016, 4.450724301457374e-05, -2.3094294357521064e-06, 0.000609828494636212]"
1556684037937784330,,22,,1556684037,687487629,"""map""",,,,-37.0434494019,7.91918706894,-2.86724090576,,-0.0289036125491,-0.0299058441722,-0.149317718739,0.987914179306,"[0.24694231884832016, 0.002714539690164961, 0.008732073175798714, -4.780682771699531e-06, 0.0018102470547724616, -0.0006913588117592382, 0.002714539807671174, 0.23268745402378163, 0.00701025067923081, 0.0033310978408185284, 0.0001701342004896963, -0.0005281979648605443, 0.008732073223878832, 0.007010250646908516, 0.1247422923798245, 0.0022657354212689824, -0.0004067028540870905, 0.00017538261286551745, -4.780681858717151e-06, 0.00333109783417718, 0.0022657354214355627, 0.0010061404532123591, 4.0046308633487435e-05, 4.688460416637225e-05, 0.0018102470556518287, 0.0001701342038147951, -0.0004067028570446483, 4.0046309561659004e-05, 0.0005558758488864324, -4.772195507740418e-06, -0.0006913588226915946, -0.0005281979625432389, 0.00017538261475166984, 4.688460420574228e-05, -4.772195854228334e-06, 0.0005928427627010914]"
1556684038582367144,,23,,1556684038,283772078,"""map""",,,,-37.0399436951,7.91484975815,-2.87433934212,,-0.0287945054653,-0.0298713330512,-0.148057150572,0.988108110905,"[0.2442151572562841, 0.0025543524674362774, 0.008851604248374442, -5.245518343594413e-05, 0.0017565242703187157, -0.0005826693229441381, 0.0025543524571051053, 0.22861439395212332, 0.007360990660607969, 0.003227964163916876, 0.0001614227252691086, -0.0005065269476727404, 0.00885160422675221, 0.007360990652843234, 0.12403097196103102, 0.0021935986626268355, -0.0002856632293275178, 0.0001675094534282564, -5.245518022648222e-05, 0.003227964165924119, 0.0021935986611163003, 0.0010081563290847498, 4.500169680719088e-05, 4.4629915331640936e-05, 0.0017565242759566833, 0.0001614227262367352, -0.0002856632258638178, 4.5001697263118166e-05, 0.000565181731345222, -6.545736868337227e-07, -0.0005826693308348036, -0.0005065269497224035, 0.000167509452344733, 4.462991540148258e-05, -6.545739046631393e-07, 0.0005894774706203489]"
1556684039127281753,,24,,1556684038,887535397,"""map""",,,,-37.0392723083,7.92314958572,-2.87152004242,,-0.0284581068585,-0.029898368634,-0.149472965084,0.987903862167,"[0.24324237543056432, 0.004785602348135591, 0.008556344790213055, 1.8946133654489865e-05, 0.0016998035413616488, -0.001099913011388533, 0.00478560225978889, 0.23665242052062094, 0.006736869849100493, 0.003242911017746981, 0.0001615757293191336, -0.0010407133486802298, 0.00855634477717841, 0.006736869891648889, 0.1234896320742596, 0.0024910022129968944, -0.0005269075961790128, 0.00017799781291865478, 1.8946134574917817e-05, 0.003242911020566521, 0.002491002215494491, 0.0010034332793779131, 4.4841387428617054e-05, 5.0316053295455076e-05, 0.00169980353968592, 0.00016157572798584775, -0.000526907595419955, 4.484138679012406e-05, 0.0005569564665411006, -5.678127151167167e-06, -0.0010999130090850419, -0.0010407133441296833, 0.00017799781301299067, 5.0316054235906616e-05, -5.678126854667001e-06, 0.000616677921281458]"
1556684039624616518,,25,,1556684039,382142756,"""map""",,,,-37.0265693665,7.91537475586,-2.87134122849,,-0.0283016191916,-0.0300963723986,-0.149350054246,0.987920936672,"[0.2409202186699966, 0.004847139845448306, 0.008429392297103561, -8.613907556907047e-05, 0.0017419826636090679, -0.0011084069958293026, 0.004847139849253952, 0.2320589297912271, 0.0070842075397665365, 0.003217231483690986, 0.00010312921791687199, -0.0010896272570906857, 0.008429392296129854, 0.007084207553779708, 0.12435838645178154, 0.002445395006874752, -0.0004008763617807909, 0.00018036605979673966, -8.613908118123343e-05, 0.00321723148163343, 0.0024453950029444246, 0.0010028519824369306, 2.19347594619734e-05, 5.008140666872418e-05, 0.0017419826644261163, 0.00010312921487378186, -0.00040087636118468404, 2.193475917465589e-05, 0.0005548005983285796, -8.094490063265375e-06, -0.0011084070008067052, -0.0010896272556471108, 0.0001803660584934549, 5.008140589139366e-05, -8.094490164187822e-06, 0.000610451895363733]"
1556684040231030876,,26,,1556684039,989938378,"""map""",,,,-37.0340614319,7.92186355591,-2.87206363678,,-0.0284010445727,-0.0299798844237,-0.149034889347,0.987969217308,"[0.24300113215105207, 0.0027656745433721386, 0.007654510538503699, -9.842818434474814e-05, 0.0017206839669935904, -0.0008126480569542742, 0.00276567446613722, 0.2286166124925038, 0.007236499110685597, 0.003017953041837624, 5.2499422397606706e-05, -0.0007328716881900807, 0.007654510576290131, 0.007236499117793148, 0.12232059080089015, 0.0023203430879123487, -0.0004987432090819843, 0.0001619974622749539, -9.842818500321942e-05, 0.003017953042379582, 0.002320343088394449, 0.0009682824638859158, 2.0893200869344363e-05, 4.778554468938175e-05, 0.0017206839684359193, 5.249942578297241e-05, -0.0004987432066271196, 2.0893200516196127e-05, 0.000569162316822485, -6.7819984768425915e-06, -0.0008126480494514592, -0.000732871694178635, 0.00016199746196235128, 4.778554488753911e-05, -6.781998331218803e-06, 0.0006023434145876601]"
1556684040813222894,,27,,1556684040,586833919,"""map""",,,,-37.0333328247,7.92069864273,-2.87152719498,,-0.0282455776938,-0.0298984677437,-0.149346514055,0.987929089191,"[0.24384244318148143, 0.00427825135281982, 0.009128449523545114, -2.5299318660938348e-05, 0.0017168257401344123, -0.0010306013620952504, 0.004278251379273422, 0.23106839536574972, 0.0076674216843597934, 0.003190820088301453, 0.00010854811578481043, -0.0008224865889910898, 0.009128449510165358, 0.007667421683095587, 0.12502433212273492, 0.0025920688812503877, -0.0003996995248686753, 0.00016112570611583667, -2.529931946511408e-05, 0.003190820086767358, 0.002592068880388851, 0.0010072170204570867, 2.5129115152046772e-05, 4.747619077162796e-05, 0.0017168257437040937, 0.00010854811569267645, -0.00039969952674082934, 2.512911404815462e-05, 0.0005549254677121737, -4.928004409840869e-06, -0.001030601358498716, -0.0008224865911495581, 0.00016112570639722462, 4.747619012350894e-05, -4.928004674318146e-06, 0.000607114116137336]"
1556684041344679856,,28,,1556684041,82357802,"""map""",,,,-37.0395355225,7.93264627457,-2.87229943275,,-0.0283771392728,-0.0300014880209,-0.149285346335,0.987931419547,"[0.24549137489978717, 0.004190867671615479, 0.008646573164155383, -4.966842652945033e-05, 0.001817312728529496, -0.0009286152124154909, 0.004190867620398482, 0.23350070583338442, 0.0071561600377427195, 0.003234499136596863, 0.00011075431696819582, -0.0008812186366450794, 0.008646573222310985, 0.00715616002792591, 0.1233709656620848, 0.0024529771913467733, -0.0005444846863961671, 0.00018767475009244826, -4.966842649079579e-05, 0.003234499131019623, 0.0024529771932668798, 0.0009777126064555424, 2.90572326688362e-05, 4.892303461947317e-05, 0.0018173127273713387, 0.00011075431748739459, -0.0005444846870310044, 2.9057232963410244e-05, 0.000564444739352045, -3.879043540573594e-06, -0.0009286152069882478, -0.0008812186472614576, 0.00018767474944543242, 4.892303406908062e-05, -3.879043412363978e-06, 0.0006205470273902828]"
1556684041929492412,,29,,1556684041,682387127,"""map""",,,,-37.0382232666,7.92011976242,-2.87052845955,,-0.0283727193583,-0.0298651429599,-0.149032659985,0.98797384766,"[0.2429873287324661, 0.004220664275403087, 0.007395266866318517, -9.70293658218711e-05, 0.0017324443483914232, -0.0008315917407344657, 0.004220664230586476, 0.2277425787651015, 0.00684658666082526, 0.0031052970072615303, 0.00010775767119572708, -0.0006450996011458378, 0.0073952668506333885, 0.0068465867073364, 0.1254237034626718, 0.002392671773589326, -0.0004772596684416329, 0.0002071481957383553, -9.702936543395826e-05, 0.0031052970090624456, 0.002392671772786326, 0.0009865892115782408, 2.0946583001356615e-05, 5.582639493640201e-05, 0.0017324443524760584, 0.0001077576722725495, -0.00047725966578087103, 2.09465826264906e-05, 0.0005623944973208576, -7.013473151208967e-06, -0.0008315917413021614, -0.0006450995940644483, 0.0002071481925787642, 5.582639456936714e-05, -7.013473048472771e-06, 0.0005994095407703042]"
1556684042453260621,,30,,1556684042,183758946,"""map""",,,,-37.0370750427,7.91961336136,-2.87005639076,,-0.028525154174,-0.0298109087161,-0.149304614805,0.98793002435,"[0.2416601822387149, 0.002295874597307152, 0.008557423638280853, -7.72407959725708e-05, 0.0017515778180750838, -0.0008313855075983156, 0.002295874471373354, 0.22729580977649025, 0.007115633446773109, 0.0032311022947928373, 5.3862139773772865e-05, -0.0007617325788392359, 0.008557423617113204, 0.007115633438102871, 0.12300890972031547, 0.0023491786145642788, -0.0004825939859185187, 0.0001524788460433376, -7.724079831543263e-05, 0.0032311022953106596, 0.00234917861620504, 0.001000056133859608, 2.2062884947995813e-05, 4.722986237802497e-05, 0.0017515778206838536, 5.386213895131387e-05, -0.0004825939888153611, 2.2062884524810767e-05, 0.0005681641884328716, -1.5153071258401563e-06, -0.0008313855042386344, -0.0007617325848519428, 0.00015247884635583253, 4.722986210274519e-05, -1.5153071921225766e-06, 0.0006035804207756536]"
1556684042937019099,,31,,1556684042,682609748,"""map""",,,,-37.0343818665,7.92612934113,-2.87010717392,,-0.0291926547992,-0.0291741546696,-0.149833517503,0.987849454071,"[0.24123439592578602, 0.004970638957305033, 0.007265201093083624, -7.657106112735851e-05, 0.001822768991849, -0.0008236914751331781, 0.004970639001362011, 0.2359307915790003, 0.005901983562015745, 0.003205586658484711, 9.800905969165264e-05, -0.0012985880450948472, 0.007265201034617332, 0.005901983618748883, 0.12420474892583297, 0.0020633016110072986, -0.0005829496634222024, 0.00019633250323235609, -7.657106905163264e-05, 0.0032055866598452065, 0.002063301611371232, 0.0010134034109568126, 3.038144395970422e-05, 5.1498093276423695e-05, 0.0018227689932485496, 9.800905826814328e-05, -0.0005829496601610104, 3.0381444248913277e-05, 0.0005705274977936866, -1.9064489218547278e-06, -0.0008236914684525205, -0.0012985880404992429, 0.0001963325023788959, 5.149809352372687e-05, -1.9064486981134837e-06, 0.0006161103985335441]"
1556684043522496894,,32,,1556684043,282308401,"""map""",,,,-37.0330162048,7.934425354,-2.87224888802,,-0.0290161026673,-0.0300691919945,-0.149304446329,0.987907934735,"[0.24746427881857946, 0.0034880491958087186, 0.008119912750298889, -7.551115634728666e-05, 0.0018142570438229502, -0.0006841010771695027, 0.003488049098156141, 0.2322876243356214, 0.006752934191696148, 0.003282907056584874, 6.290586553466295e-05, -0.0010106874077845799, 0.008119912721966892, 0.0067529341969981855, 0.12301131535548493, 0.0021130760637659025, -0.000571211363629642, 0.0001758928794084554, -7.551116166071571e-05, 0.0032829070527693282, 0.0021130760661589114, 0.0010039887285513032, 1.4728465217954095e-05, 4.627149327116344e-05, 0.0018142570470299658, 6.290586522972062e-05, -0.0005712113613605651, 1.472846479668166e-05, 0.0005582676110141699, -9.432481689296801e-06, -0.0006841010800936357, -0.0010106874090987637, 0.00017589287983331255, 4.627149225299281e-05, -9.432481431839719e-06, 0.0006034200660239848]"
1556684044147523890,,33,,1556684043,882849349,"""map""",,,,-37.0296783447,7.9231300354,-2.86955189705,,-0.0288431512396,-0.0298895222328,-0.149453189318,0.987895943238,"[0.2436917070942943, 0.004462719796129293, 0.009151339753567942, -1.7522548907710916e-05, 0.0017648640461103886, -0.001053885677797083, 0.0044627198911255375, 0.23485391942116765, 0.006599620995795857, 0.003326739870518343, 0.00011064494139679761, -0.0008440293619732462, 0.009151339807732181, 0.006599620997788545, 0.12302063184239685, 0.0023914201597309576, -0.0004888620718071269, 0.00015889216915486126, -1.7522546663166306e-05, 0.003326739872716375, 0.0023914201567531734, 0.0010142978983921338, 1.789724724205743e-05, 4.565290523081435e-05, 0.001764864044288844, 0.00011064494611928366, -0.0004888620709746474, 1.7897247595549167e-05, 0.0005628754031218277, -4.64115056668656e-06, -0.0010538856787059112, -0.0008440293527941645, 0.0001588921698221696, 4.565290548259437e-05, -4.641150589981374e-06, 0.0006117539850298557]"
1556684044642148906,,34,,1556684044,382742363,"""map""",,,,-37.0385284424,7.9138250351,-2.87194442749,,-0.0291372817275,-0.0298952331628,-0.149552033173,0.987872178527,"[0.2430809573456293, 0.005183283063641964, 0.008523677655974605, 4.336401844584095e-05, 0.0017976284240176347, -0.001069207437383769, 0.0051832830570843974, 0.23516439396433594, 0.006093757212366109, 0.003195388718465238, 0.00018338971596888962, -0.0010088704050591846, 0.008523677679130185, 0.006093757243370683, 0.12424117960569317, 0.002427201968534699, -0.0005398713560961517, 0.00017686431852783897, 4.336402123370498e-05, 0.003195388720105964, 0.002427201964146046, 0.0010178155011457122, 3.287046768804184e-05, 4.0549171971949574e-05, 0.0017976284220273273, 0.00018338971461468042, -0.0005398713586235916, 3.28704674201654e-05, 0.0005631970891810314, -6.385176000783408e-06, -0.0010692074311803666, -0.0010088704110506465, 0.00017686431986846672, 4.05491721351833e-05, -6.385176434052304e-06, 0.0006303052620164367]"
1556684045126722062,,35,,1556684044,882771365,"""map""",,,,-37.0529441833,7.93079519272,-2.85453939438,,-0.0289298375706,-0.0273813543299,-0.149651242166,0.987936148117,"[0.24907962459808708, 0.0016064030127002872, 0.007888858555837128, -9.691394788005086e-05, 0.0017858242497717127, -0.0006377158170820129, 0.0016064029468667697, 0.23433830964539987, 0.006196514533416657, 0.003330138095577297, 0.00012031056462977821, -0.0011552435345680543, 0.007888858538989142, 0.006196514579706175, 0.12308489583930304, 0.002130576142432087, -0.0006729049337946525, 0.00022650790092589373, -9.691394936480348e-05, 0.0033301381014658273, 0.0021305761415914715, 0.0010135473916263473, 2.8696125065078866e-05, 4.606479343135408e-05, 0.0017858242489986057, 0.00012031056238569608, -0.0006729049349404053, 2.8696124889893797e-05, 0.0005626475850779687, -3.284980031769594e-06, -0.0006377158222432371, -0.0011552435260427825, 0.00022650790021504035, 4.6064793504063426e-05, -3.284980460990743e-06, 0.0006211497777892294]"
1556684045772281492,,36,,1556684045,482254692,"""map""",,,,-37.0530471802,7.93492412567,-2.86253881454,,-0.0287439004505,-0.0278084224314,-0.149799979753,0.987907082514,"[0.24723762878144318, 0.0030086118435710832, 0.007438955686688874, -5.234145893997688e-05, 0.0018524025929356092, -0.0008287805058504994, 0.00300861189212574, 0.23240540149090766, 0.006189472736900101, 0.0032684886244457494, 0.0001071024871669023, -0.001121848628812461, 0.0074389556566132, 0.006189472820806853, 0.12410273445501707, 0.002147967999217376, -0.0006783969776325652, 0.00018302836593515865, -5.234145954841069e-05, 0.003268488631082706, 0.002147967989280587, 0.0010261531759000165, 3.229079862519159e-05, 4.3219308234982596e-05, 0.0018524025929017856, 0.00010710248497190578, -0.0006783969771700057, 3.2290798568415595e-05, 0.0005670990199132449, -3.7013635286188966e-06, -0.0008287805084186496, -0.0011218486198284648, 0.00018302836603491303, 4.32193085458696e-05, -3.7013633687253875e-06, 0.0006116886620400048]"
1556684046368376648,,37,,1556684046,88555620,"""map""",,,,-37.055721283,7.92890644073,-2.86920976639,,-0.0293794831965,-0.0280708006225,-0.149775251917,0.987884735959,"[0.2434461168188918, 0.004967608170644295, 0.007906726500882404, -7.751307533389232e-05, 0.0018294396037068718, -0.0007431603264472684, 0.004967608254233189, 0.23356549567351634, 0.00583823922550827, 0.0031519201511453383, 0.00010371786693133105, -0.0010857094619061206, 0.007906726522685509, 0.0058382392435389315, 0.12355361949351097, 0.002176205501317304, -0.0005592390306261174, 0.0001921248439792579, -7.751307855583526e-05, 0.0031519201468429054, 0.002176205497674368, 0.0010136686031324738, 3.247705733077702e-05, 4.504125470239174e-05, 0.0018294396040971828, 0.00010371786577651047, -0.0005592390320797834, 3.247705761052216e-05, 0.0005844711964259655, -9.13018469798495e-06, -0.0007431603333772811, -0.0010857094628640115, 0.00019212484224039776, 4.504125442834431e-05, -9.13018494366034e-06, 0.0006136563333167131]"
1556684046944197806,,38,,1556684046,682293605,"""map""",,,,-37.005531311,7.90675258636,-2.87874507904,,-0.0284896393173,-0.0316999814358,-0.149587114789,0.987829519775,"[0.2443477276721483, 0.0025442211395878614, 0.008618549406635576, -9.304966147371097e-05, 0.0017820483345286125, -0.0007880409358450535, 0.002544221201815022, 0.23138318026963503, 0.006298336790644069, 0.003290252292053899, 9.939275198092166e-05, -0.0006945576951601413, 0.008618549420838704, 0.006298336828666729, 0.12163729734584529, 0.002303065642551707, -0.0004286892323588705, 0.00017134323250190124, -9.304966186170136e-05, 0.0032902522949654223, 0.0023030656398350126, 0.0010112025267877147, 3.059979989576753e-05, 4.958910529615648e-05, 0.0017820483351760122, 9.93927537759265e-05, -0.00042868923489127733, 3.0599799828478015e-05, 0.0005593813367626155, -3.5068298634565203e-06, -0.0007880409416350912, -0.0006945576854352438, 0.0001713432336180905, 4.9589105821540525e-05, -3.5068295691486298e-06, 0.0006097401829120235]"
1556684047428884092,,39,,1556684047,183065826,"""map""",,,,-36.8370399475,7.86454820633,-2.86137604713,,-0.0291307390439,-0.0372599360334,-0.14858462398,0.987768017335,"[0.24979129404125527, 0.002322120979009369, 0.00902598902524731, 3.3726678179633594e-05, 0.0017640733833192944, -0.0009000293557938129, 0.0023221209626261385, 0.2335779227920962, 0.0068811113182413695, 0.0032166642875048087, 0.00012866420790184275, -0.0005960859555823768, 0.009025988996141189, 0.0068811113591164255, 0.12140131223556314, 0.0023744356213735852, -0.0004619659739437706, 0.00015302196109359076, 3.372667894795421e-05, 0.003216664284009431, 0.0023744356167283718, 0.0010001077361466238, 2.3089333324372497e-05, 5.6850287235891504e-05, 0.0017640733832281776, 0.00012866421257958624, -0.0004619659741642042, 2.3089333175962407e-05, 0.0005574412252337152, -5.379885706948603e-06, -0.0009000293653357524, -0.0005960859635293926, 0.00015302196036688282, 5.685028680987778e-05, -5.379885846692499e-06, 0.0006110702288684252]"
1556684048079521582,,40,,1556684047,783919679,"""map""",,,,-36.4489440918,7.75079584122,-2.80853843689,,-0.0306342303506,-0.0380091659578,-0.14335341208,0.988466803279,"[0.24516103940107584, 0.004845675957307606, 0.008788802178650008, -3.744285478736497e-05, 0.0017420623791751697, -0.0006334424311872995, 0.004845675791389559, 0.23354003009847638, 0.0054721574514824374, 0.0031479098776274763, 0.00013150476917434488, -0.0007979673492637087, 0.00878880211808115, 0.005472157408713582, 0.1214430824910341, 0.002044183400797452, -0.00047019356656349614, 0.00019056049708068634, -3.744286310422648e-05, 0.0031479098757467884, 0.0020441833949944224, 0.0010040719162798582, 1.764920877775118e-05, 5.5576261654505454e-05, 0.001742062376343117, 0.0001315047675309502, -0.0004701935645384025, 1.764920920536521e-05, 0.0005629447989341467, -4.73518128196445e-06, -0.0006334424310150222, -0.0007979673578789978, 0.0001905604973423341, 5.557626067215206e-05, -4.735181470566303e-06, 0.0006143194299757354]"
1556684048614621833,,41,,1556684048,381911210,"""map""",,,,-35.8490257263,7.58892917633,-2.73537969589,,-0.0268467078647,-0.0217098197715,-0.13513934017,0.990224872069,"[0.24374211430929305, 0.002517410540312006, 0.0071028793483367434, -6.162479446010524e-05, 0.001883990184664334, -0.0006546758042737373, 0.002517410451600515, 0.22611118504004574, 0.0067962558497942855, 0.0032852888505030447, -7.250475561896303e-05, -0.0007109857559070931, 0.0071028793268101825, 0.006796255878249927, 0.12107934105304531, 0.0021688469476818764, -0.0008348739958133183, 0.00010634948091676998, -6.162479848216925e-05, 0.0032852888468580593, 0.0021688469490728384, 0.0010076542475612469, 9.054661244425035e-06, 3.6527785865990004e-05, 0.0018839901843851997, -7.250475277724215e-05, -0.0008348739908694494, 9.054661754695699e-06, 0.000573733881427684, -7.942864832344467e-06, -0.0006546758011212448, -0.0007109857581862513, 0.00010634947989510062, 3.652778544285411e-05, -7.942864376560128e-06, 0.0005976045687912831]"
1556684049131132716,,42,,1556684048,882152309,"""map""",,,,-35.2971725464,7.44036054611,-2.67003726959,,-0.0284331147183,-0.0249547837224,-0.127465284372,0.991121289939,"[0.2370618849006654, 0.003413169778489239, 0.005833044833348777, -0.00018681982853399815, 0.0017435748792587276, -0.0006837669771110966, 0.0034131697643213464, 0.22576550076663454, 0.005477069845664771, 0.003222988651750663, -2.7983002937127178e-05, -0.0007097791836322557, 0.005833044851764808, 0.005477069861135045, 0.11913092242626404, 0.0020112207461995754, -0.0008823061289090655, 0.00018036561671920659, -0.0001868198324763683, 0.003222988650501197, 0.0020112207464190535, 0.000986702414860779, -6.032853352524341e-06, 3.8918542324488414e-05, 0.0017435748783065166, -2.79830039609257e-05, -0.0008823061332083535, -6.032853439137516e-06, 0.0005542517279748146, -1.4124807841025091e-05, -0.0006837669851833059, -0.0007097791873071614, 0.00018036561710481973, 3.891854228767454e-05, -1.4124808085611728e-05, 0.0005845334823009537]"
1556684049648083884,,43,,1556684049,383078824,"""map""",,,,-34.6919670105,7.27426338196,-2.6142821312,,-0.0281625902273,-0.0247564683229,-0.124539403289,0.991505869316,"[0.23780473314145317, 0.005293893859947879, 0.005851308601622522, -8.937112307933506e-05, 0.0017287740308390266, -0.0008728141408258256, 0.005293893835359051, 0.2340613348602362, 0.005305386458350666, 0.0032294888063694235, 3.462840161367328e-05, -0.00084770163965678, 0.0058513086117354994, 0.005305386482759364, 0.11913750965131803, 0.002013970982332803, -0.0008481244648071148, 0.0001663162844434272, -8.937112349238603e-05, 0.0032294888060092363, 0.002013970981592779, 0.0009958836734143702, 7.2282388717283075e-06, 4.171760860799258e-05, 0.001728774028092796, 3.46284016448772e-05, -0.0008481244661197958, 7.228238686842378e-06, 0.0005584675819743025, -8.698748696498079e-06, -0.0008728141444613189, -0.0008477016557427219, 0.0001663162848946913, 4.171760833976346e-05, -8.698748865539053e-06, 0.0006015115418091895]"
1556684050293993742,,44,,1556684049,982712421,"""map""",,,,-33.8079986572,7.08735179901,-2.44862294197,,-0.0231207192804,-0.0126190866123,-0.122711539425,0.992092773842,"[0.23587263491700586, 0.007915124277067, 0.003238005732513411, -0.0001783750692401058, 0.001857347975385912, -0.0012411056992604986, 0.007915124317660073, 0.23060014093635117, 0.006277102687718518, 0.0032031488155296966, -1.2119836096734573e-05, -0.0010357532921997762, 0.003238005773488945, 0.006277102691336197, 0.12323700625256427, 0.0025202276405006906, -0.0013148967861478728, 0.00017327127903136547, -0.00017837506668216778, 0.0032031488159632608, 0.002520227637050542, 0.0010075610552491635, 1.3809156947404108e-05, 2.42689615243305e-05, 0.0018573479759162017, -1.2119833976501368e-05, -0.0013148967859811375, 1.3809157147734263e-05, 0.0006035590612070576, -9.063999761506147e-06, -0.0012411057053262394, -0.0010357532935338593, 0.00017327128027739866, 2.4268961018345078e-05, -9.06400043465342e-06, 0.0006109653477867167]"
1556684050757934791,,45,,1556684050,490604507,"""map""",,,,-32.8547134399,6.8489985466,-2.43475103378,,-0.0228357790544,-0.0221679050549,-0.118296145832,0.992468185972,"[0.2291391744759074, 0.00499974504873293, 0.00392998640118213, -3.360349417852384e-05, 0.0019152059474567865, -0.0009012940034811159, 0.004999745039774018, 0.226161035700129, 0.006073016188293222, 0.0031254203614120048, -0.0001509072083847924, -0.0010583447026788126, 0.003929986378965987, 0.006073016179888126, 0.12382356661860901, 0.002545614499782236, -0.0014775298486219813, 8.796422063996276e-05, -3.3603490840634335e-05, 0.003125420359540076, 0.0025456145066415424, 0.001035565077172599, 1.8383557327707995e-05, 4.33435082918673e-05, 0.0019152059448981898, -0.0001509072022126832, -0.0014775298415104878, 1.838355779027971e-05, 0.0006269042482873828, -5.290835799085353e-06, -0.0009012939972011876, -0.0010583447078828373, 8.796422129766338e-05, 4.334350840541902e-05, -5.290835525787611e-06, 0.0006154271740315695]"
1556684051388207374,,46,,1556684051,83381565,"""map""",,,,-31.4885177612,6.53154993057,-2.31588506699,,-0.020949148641,-0.0257317073583,-0.11327033713,0.993009992294,"[0.2317302777284503, 0.005459841091420542, 0.0045616312079885535, -7.69831053086344e-05, 0.0019273556828386079, -0.001184155079783005, 0.005459841031795684, 0.22804644455446982, 0.006346539333049154, 0.003101851677480941, -0.000112907229860928, -0.0010981896835309648, 0.004561631193163495, 0.006346539394566698, 0.12516973336564194, 0.0026878586663604724, -0.0013956040067812307, 0.00010376937491380744, -7.69831047940901e-05, 0.0031018516848488322, 0.0026878586682710383, 0.0009817330857559803, -2.804137119358953e-07, 3.7823376505474374e-05, 0.001927355681275203, -0.00011290723057643893, -0.0013956040078687585, -2.804133535715356e-07, 0.0006335325918374186, -1.4607536615890814e-05, -0.0011841550748919946, -0.0010981896834690258, 0.0001037693715237145, 3.782337597206841e-05, -1.4607535844027804e-05, 0.0006276799869211095]"
1556684051852515841,,47,,1556684051,582207031,"""map""",,,,-30.170419693,6.23102045059,-2.17261457443,,-0.0176923726206,-0.0208927270346,-0.108219510528,0.993749950217,"[0.23185813965261545, 0.0022788771383806645, 0.005444200906518738, -0.00018687860669783997, 0.0018308632000270531, -0.0011005899966959056, 0.0022788771360913026, 0.22504859980347133, 0.006775685073406193, 0.0030126576952203546, -0.00015660549783065578, -0.0011058595566403727, 0.005444200893111679, 0.006775685022797314, 0.1232413007492404, 0.0025958810134621055, -0.0013965062010555002, 9.807012198414903e-05, -0.0001868786099943277, 0.003012657694745001, 0.0025958810203239166, 0.0009423859343341486, 2.4172238241737414e-07, 2.9544322639562392e-05, 0.001830863203683718, -0.000156605490008363, -0.0013965061945567453, 2.4172440765675003e-07, 0.0006616968369625134, -8.26884183845671e-06, -0.0011005899973771933, -0.0011058595490059764, 9.807012334118395e-05, 2.954432302502151e-05, -8.268841552062124e-06, 0.0005998875066077468]"
1556684052340785482,,48,,1556684052,82574098,"""map""",,,,-28.6639614105,5.91632604599,-2.02994012833,,-0.0156221013128,-0.0156301248865,-0.104457668115,0.994283774511,"[0.23297629421744817, 0.0017223018165728194, 0.005961650176049048, 2.77679170800422e-05, 0.0019325788122116579, -0.0012652364976721716, 0.0017223018646225776, 0.21908474105958964, 0.006254436134109233, 0.002934794956515704, -0.00010857518662784805, -0.000997866059515998, 0.005961650165155654, 0.006254436135938615, 0.1239904637741578, 0.0027599670364458423, -0.0014984967582925288, 5.028749892019521e-05, 2.776792116585134e-05, 0.0029347949587722215, 0.002759967032956376, 0.0009501188386378591, -2.8679967332632814e-06, 2.3811538076862e-05, 0.0019325788149984022, -0.00010857519185984998, -0.0014984967616995437, -2.8679976354190207e-06, 0.000695826770452622, -1.3508470123110117e-05, -0.001265236497259438, -0.0009978660621249354, 5.028750062364499e-05, 2.3811538232889125e-05, -1.3508470643077125e-05, 0.0006157562967856917]"
1556684052875917480,,49,,1556684052,590179799,"""map""",,,,-27.0235748291,5.57054567337,-1.9076666832,,-0.0167413893796,-0.0152112769392,-0.105818772628,0.994128094128,"[0.22960643163755035, 0.0014399628807680615, 0.006507727756804717, 9.018843333512916e-05, 0.0019376640247095122, -0.0013258039182581895, 0.001439962904765374, 0.21949681494998016, 0.004684664171709831, 0.002898846717697915, -2.406067585097742e-05, -0.001124389604754481, 0.006507727763795375, 0.0046846641544403675, 0.12321582996326279, 0.0024671637406355976, -0.0015696340042748507, 4.329190360776122e-05, 9.018843161311298e-05, 0.002898846715417626, 0.0024671637431772806, 0.0009393850145090826, 1.885986647197971e-05, 1.7824162584827936e-05, 0.0019376640240664207, -2.4060673220720714e-05, -0.0015696340064277473, 1.8859866452022103e-05, 0.0007215124007396044, -1.1182109998739029e-05, -0.00132580392290765, -0.0011243896029613423, 4.329190356173306e-05, 1.782416182190069e-05, -1.1182110295788198e-05, 0.000638205793029401]"
1556684053360667920,,50,,1556684053,89787002,"""map""",,,,-25.3023300171,5.22561645508,-1.77252399921,,-0.0149045539388,-0.0147742022482,-0.110108705316,0.993697939115,"[0.23283844270702833, 0.002948909129282786, 0.006007716008895305, 6.411820653568811e-05, 0.0021449860451141656, -0.0012859503753295516, 0.002948909115820998, 0.22530608351776257, 0.004695980849383967, 0.0030898763025863658, -8.143514728749527e-05, -0.0010261473998975346, 0.006007716002075841, 0.004695980852312551, 0.1280384796280395, 0.0026656329110545905, -0.0013389608151841636, 8.467916694594541e-06, 6.411820499103533e-05, 0.003089876304522678, 0.002665632914306787, 0.0009729396988107671, 8.063612278543188e-06, 1.5647586801710292e-05, 0.0021449860442347, -8.143514642954992e-05, -0.0013389608146759206, 8.063612738609489e-06, 0.0007969152201968885, -7.813690389984811e-06, -0.0012859503692995904, -0.0010261473971785095, 8.467916970648838e-06, 1.5647586579214706e-05, -7.813690936380607e-06, 0.0006653763759733049]"
1556684053901859666,,51,,1556684053,583884729,"""map""",,,,-23.5042629242,4.84090900421,-1.63379836082,,-0.0164884170745,-0.0140013267195,-0.112724920628,0.993390757927,"[0.22207112535416115, 0.0004135134916509768, 0.0065444125137234304, -7.520245448203326e-07, 0.0020354309338481815, -0.0011665319815319778, 0.0004135134380258899, 0.21680741610341517, 0.0049283059829833145, 0.002914446497969891, -9.653994301259082e-05, -0.00041943224640615835, 0.006544412488268757, 0.004928306021418684, 0.12481906189890397, 0.002675532719707616, -0.0006506129110317654, -9.341965453272759e-06, -7.520239877571982e-07, 0.0029144465009563122, 0.0026755327163873583, 0.0009662527460261468, 4.679341525273996e-06, 1.0276146865263323e-05, 0.0020354309377928186, -9.65399483169651e-05, -0.0006506129137850957, 4.679340219381565e-06, 0.000808415240557326, -1.0659972646294626e-05, -0.001166531976085101, -0.000419432239257774, -9.341968231683557e-06, 1.0276146750074072e-05, -1.065997258507113e-05, 0.0007000540013603422]"
1556684054365139095,,52,,1556684054,89339942,"""map""",,,,-21.7803821564,4.48840522766,-1.51238691807,,-0.0145051511553,-0.0171650824264,-0.111496584011,0.9935107006,"[0.21388219880058534, -0.00014148889066805377, 0.0065837719214678, -3.693040530719708e-06, 0.002067628151455605, -0.0010712195953257314, -0.00014148900180900576, 0.21330296756572417, 0.005361904807429273, 0.00294901973747296, -7.932387110887077e-05, -0.0003762944133203332, 0.006583771945521343, 0.0053619048069983855, 0.12622405486919355, 0.002965972267714939, -0.00014895936556596183, -2.140061039385284e-05, -3.6930465152036076e-06, 0.0029490197390937083, 0.0029659722697553503, 0.0010067225368039893, 1.7930247479856242e-05, 1.5325695469888994e-05, 0.0020676281582902977, -7.932386320712538e-05, -0.00014895936475777774, 1.7930248395598672e-05, 0.0008240867256170655, -1.545585006605461e-05, -0.0010712195944089047, -0.0003762944116654983, -2.1400610258371297e-05, 1.5325695570299675e-05, -1.545584919498853e-05, 0.0007016005199863838]"
1556684054845492404,,53,,1556684054,581984143,"""map""",,,,-20.0263633728,4.0751786232,-1.37577652931,,-0.0138896727992,-0.0131629419196,-0.109282922573,0.993826466144,"[0.23923939861228735, 0.0020718391637140304, 0.010524640896408994, 0.0002521624257378791, 0.002393372590999614, -0.00198011939423758, 0.00207183921143552, 0.23841579280273456, 0.007137453669987193, 0.0032012473190955906, 0.00023308503065623613, -0.00019493780566958035, 0.01052464094108487, 0.0071374536475900295, 0.1385427323049817, 0.0039059030468009226, 0.0002865665300237764, -2.3989119606626788e-05, 0.0002521624304214609, 0.0032012473155167056, 0.0039059030529238676, 0.0011253294916259873, 0.000120398573103814, 1.05735059429793e-05, 0.00239337258930234, 0.00023308503685530237, 0.00028656652987395416, 0.0001203985731055192, 0.0009333817370373498, -2.673038341909647e-06, -0.001980119389622279, -0.0001949378055403339, -2.3989118395444907e-05, 1.0573506087612981e-05, -2.6730382957854547e-06, 0.0007391278603763876]"
1556684055376256834,,54,,1556684055,88423161,"""map""",,,,-18.1878871918,3.68669581413,-1.21877193451,,-0.0113775839338,-0.0162161322498,-0.106832523134,0.994079670415,"[0.21815657780218373, 0.002620503358668094, 0.011124425309190266, 0.00042563957488292903, 0.002139726525193729, -0.0015695654218817192, 0.0026205034853742006, 0.2343911329502269, 0.009418283542257686, 0.0033070064955082325, 0.0003284848419442638, -0.0003414437618745879, 0.011124425338463684, 0.00941828350703286, 0.13807737873290093, 0.0038514684194648797, 0.0002924230854870113, -4.284723494840121e-05, 0.0004256395768424899, 0.0033070065006520484, 0.0038514684236032196, 0.001133577893473158, 0.00013082945473555306, 1.2865776668841712e-05, 0.002139726522424367, 0.00032848483989062085, 0.00029242308536609987, 0.00013082945427847492, 0.0008066352612582162, 5.444077541210479e-06, -0.001569565421517859, -0.0003414437593907956, -4.284723357595043e-05, 1.2865776872070673e-05, 5.444077544667389e-06, 0.0007269725308671779]"
1556684055881520792,,55,,1556684055,582236081,"""map""",,,,-16.3912391663,3.32457447052,-1.08233261108,,-0.0108122151126,-0.0188939200675,-0.103933990369,0.994345930443,"[0.21346920516504392, 0.0027704804922494015, 0.010661406632820605, 0.00039287519577314433, 0.0018057258606901405, -0.001770202580234897, 0.0027704805204020098, 0.2269831825991173, 0.011679266057071704, 0.003461894350115043, 0.00039570482729934066, -0.0007101098454439811, 0.01066140663773264, 0.011679266054637058, 0.14879078309136684, 0.0050470060981757875, 0.00035239367042605283, 1.771413734764203e-05, 0.0003928751966604319, 0.003461894342954303, 0.005047006093665572, 0.0012953164869913471, 0.00016377608548869544, 2.386226510175222e-05, 0.0018057258613445332, 0.00039570481805031583, 0.00035239366532942935, 0.00016377608441109256, 0.0007868791150774628, 8.070641947523534e-06, -0.0017702025869402321, -0.0007101098472898316, 1.7714138599837787e-05, 2.3862265596542507e-05, 8.07064163709094e-06, 0.0007682974428879252]"
1556684056346901701,,56,,1556684056,83709159,"""map""",,,,-14.704741478,2.99077677727,-0.933804273605,,-0.00813108585336,-0.0171753712101,-0.103695406427,0.994427562741,"[0.202364912059657, 0.0001697323357999064, 0.008274293618123338, 0.0005183832534070752, 0.001679879724722568, -0.0016680857373404256, 0.0001697323414470481, 0.20403058443261893, 0.011428830810285848, 0.003478091125185013, 0.0005361354614657098, -0.0007232426900416577, 0.00827429359737539, 0.011428830795673393, 0.14786622422123488, 0.004843977671493116, 3.086204610978679e-06, 2.6173355605840735e-05, 0.0005183832520866609, 0.003478091126209633, 0.0048439776819191906, 0.0012891135193235123, 0.00016575741933079886, 1.9140422319221585e-05, 0.0016798797240834748, 0.0005361354607660445, 3.0862060742681744e-06, 0.00016575741949166657, 0.0007698534871253192, 1.0104302500962834e-05, -0.0016680857328238798, -0.0007232426884511978, 2.617335859872004e-05, 1.9140422597448588e-05, 1.0104302020935913e-05, 0.0007834475372748751]"
1556684056827470460,,57,,1556684056,586761110,"""map""",,,,-13.2009897232,2.69644522667,-0.81926202774,,-0.00881523002472,-0.0152799139204,-0.110334657319,0.993737939246,"[0.2902326313579104, -0.013028361493685532, 0.011401927197570385, 0.0006008021085416175, 0.0018523250776536935, -0.0032714274499856875, -0.013028361560202815, 0.229582033717811, 0.010257293011090496, 0.003367750677528426, 0.000470754686828889, 0.00034420817491765, 0.011401927181869468, 0.010257293066789096, 0.1559540983005981, 0.005099637398289396, 1.945944054819915e-05, -0.0001244793970190974, 0.0006008021083591898, 0.00336775068121987, 0.005099637394522605, 0.0012456254127034994, 0.0001641458232020691, 1.143715469625335e-05, 0.0018523250729307612, 0.0004707546908550884, 1.945944283485422e-05, 0.00016414582422097856, 0.0007631710124135411, 9.990127815298841e-06, -0.0032714274503540517, 0.00034420817171741864, -0.0001244793907129351, 1.1437155868889636e-05, 9.990127533307122e-06, 0.0008108946330060426]"
1556684057301867703,,58,,1556684057,84002487,"""map""",,,,-11.7501773834,2.34543561935,-0.709426045418,,-0.0077439179216,-0.0239965956688,-0.117252318777,0.992781986648,"[0.3566873164091471, -0.01773192573960545, 0.013051023177512378, 0.0005487256021290597, 0.0015967407812046343, -0.005217272162040885, -0.01773192568569463, 0.27574108956061755, 0.009946155897992692, 0.0036503999107344014, 0.0005260244501155547, 0.0010336204662240048, 0.013051023237049163, 0.009946155841433805, 0.16186972281250914, 0.006139314499833653, -9.11535255244906e-05, -0.00017208971606471674, 0.000548725610804389, 0.0036503999089892184, 0.006139314501865059, 0.00134968543778884, 0.00015867715586789007, 3.7187906711442745e-05, 0.0015967407795860699, 0.0005260244448671586, -9.115354145903359e-05, 0.00015867715257662391, 0.0007239461392506662, 2.053229542074951e-05, -0.0052172721654845725, 0.001033620479238064, -0.00017208971751711644, 3.7187906599920646e-05, 2.0532295645116382e-05, 0.0009035381375648102]"
1556684057795217425,,59,,1556684057,581844257,"""map""",,,,-10.4148826599,2.01349925995,-0.566932022572,,-0.0029518480465,-0.0136101301443,-0.12569462809,0.991971202613,"[0.317186036571824, -0.010247216403614059, 0.006926662853701822, 0.0002508436001702056, 0.0014389699359870288, -0.004539124091467451, -0.01024721640118177, 0.2545922801695184, 0.011944958473507732, 0.0035308128824430626, 0.0003240738062404553, 0.0011099766443490463, 0.006926662945584139, 0.011944958489715425, 0.15344814251728509, 0.006439964149784414, -0.0008934365426311018, -2.384977687849339e-05, 0.00025084361034547224, 0.003530812881587623, 0.006439964147664406, 0.001352249663211058, 8.816111589641798e-05, 3.441144221454213e-05, 0.0014389699397224622, 0.0003240738059377919, -0.0008934365494963791, 8.816111426043079e-05, 0.0006326554586291104, 1.266870060372394e-05, -0.004539124095032047, 0.0011099766337764182, -2.3849776804667355e-05, 3.441144182232577e-05, 1.2668700838727453e-05, 0.0008306066352942315]"
1556684058438505045,,60,,1556684058,182080495,"""map""",,,,-8.66296291351,1.60690379143,-0.392041444778,,-0.00119235531556,-0.0063586376148,-0.129807550524,0.991518110213,"[0.2489181395541069, 0.002372078719588228, 0.002197303948326454, 2.9037673247320798e-05, 0.001497733053490106, -0.0024064665953536023, 0.0023720788384233417, 0.22203996557297853, 0.009949823643012494, 0.0028250185840205996, 0.00014190565598017107, -0.0001253388397725532, 0.002197303935479253, 0.009949823632672376, 0.12215109549802859, 0.004251104735209787, -0.0016422257140614707, 9.790355781395915e-05, 2.9037677157694077e-05, 0.002825018585706083, 0.004251104739628233, 0.0010884892600603535, 1.1711180010043062e-05, 2.379407475635702e-05, 0.001497733052428889, 0.0001419056588458495, -0.0016422257109694, 1.1711180398284229e-05, 0.0006175566679146031, 6.960487274899278e-06, -0.002406466597150719, -0.00012533883777486306, 9.790355616259525e-05, 2.3794074277894405e-05, 6.960487369533862e-06, 0.0007635527564296651]"
1556684059068283481,,61,,1556684058,781801165,"""map""",,,,-6.95314311981,1.18611598015,-0.276060968637,,-0.00154063968121,-0.00190432409165,-0.121122308656,0.992634567403,"[0.20204797555026857, 0.008058538832808182, -0.00017204253043096097, 7.375378823113434e-06, 0.0016199226860004997, -0.0014546928202646336, 0.00805853887621926, 0.2017097542912113, 0.00876813103951308, 0.0026164132332517293, 5.785817912069218e-05, -0.00033807675038235714, -0.00017204246896938095, 0.008768130997698487, 0.11089591456249819, 0.0033903523713048156, -0.0019011626909815143, 7.170039502595042e-05, 7.375382758910058e-06, 0.0026164132301454523, 0.003390352372993881, 0.0009560910359884578, -1.103107533601846e-05, 6.499021598412906e-06, 0.0016199226844612084, 5.785817712544119e-05, -0.0019011626919994795, -1.1031075278308914e-05, 0.0006232121947419892, 1.996805621399168e-06, -0.0014546928235551779, -0.000338076753038169, 7.170039819900743e-05, 6.499021821558626e-06, 1.996805330400212e-06, 0.0007156055446470534]"
1556684059542607448,,62,,1556684059,281866196,"""map""",,,,-5.58865690231,0.876519441605,-0.19853669405,,6.92919024978e-05,0.000197861193221,-0.108417007084,0.994105490193,"[0.1815304666260479, 0.014421013564313318, -0.0013324309284060232, -3.730259971126504e-05, -0.0017027232000270491, -0.0010747807468678451, 0.014421013564550536, 0.20131889580993953, 0.008625777374524822, 0.002619313750267065, -1.9862684389276747e-06, -0.00044831738724406857, -0.0013324309177411419, 0.008625777361913835, 0.10404990471292151, 0.0029621711592537053, 0.0018493300152795464, 4.436430076103193e-05, -3.730260309237664e-05, 0.0026193137554170872, 0.002962171163880276, 0.0009020900248619682, 1.755885022501659e-05, 3.318716586571398e-06, -0.0017027231953173152, -1.9862728405495957e-06, 0.0018493300094970292, 1.7558848870054547e-05, 0.0006511033879501106, -7.182122346842083e-06, -0.0010747807494061346, -0.0004483173839760696, 4.4364300195375635e-05, 3.3187165311605814e-06, -7.182121986569757e-06, 0.0006962467434453059]"
1556684060189279680,,63,,1556684059,882380322,"""map""",,,,-3.99988079071,0.537621796131,-0.118040405214,,-0.000102526994149,0.00518932821352,-0.0896670243418,0.995958274155,"[0.1661248252719886, 0.015747908300944784, -0.001597225908720473, -8.456938038657563e-05, -0.001614062218492034, -0.0007303841224398363, 0.015747908371916364, 0.19677912621292035, 0.005876981647134634, 0.0022524392910204466, -2.904788108316611e-05, -0.0001773067546042072, -0.0015972259236361303, 0.005876981694181603, 0.09408189563429832, 0.002162378123845245, 0.0016378643241035194, 5.4258836260270695e-05, -8.456937700833362e-05, 0.0022524392954556987, 0.0021623781232941335, 0.0007973444914961085, 8.811871106167521e-06, -6.289985974683695e-06, -0.0016140622180860766, -2.9047873572722293e-05, 0.0016378643281211233, 8.811872147838658e-06, 0.0006120842686315801, -8.822949130090233e-06, -0.0007303841236530004, -0.00017730676049566401, 5.4258833458812784e-05, -6.2899859469283654e-06, -8.822949586236663e-06, 0.0006583495710239272]"
1556684060780172350,,64,,1556684060,489170125,"""map""",,,,-2.60294389725,0.30699506402,-0.0549444518983,,0.000516279097451,0.00884339326173,-0.064756747542,0.997861759166,"[0.14625579274683922, 0.019432167169609965, -0.0026343214840356703, -0.00011502465544588844, -0.0017178241658773075, -0.0003617991626189287, 0.019432167139416565, 0.18722337788506763, 0.0046717141350264375, 0.002093973208524239, -8.06358677663204e-06, -6.93659181199719e-05, -0.0026343214894437353, 0.00467171414226924, 0.09178883435343144, 0.001819486294226458, 0.0018458843543284053, 6.708213863213006e-05, -0.0001150246619703032, 0.0020939732080073378, 0.0018194862965061878, 0.0007392051931364985, 6.059819577257489e-06, -9.357101420428659e-06, -0.0017178241652670754, -8.063588027986845e-06, 0.0018458843549007773, 6.059818952295528e-06, 0.0006276057144040754, -5.445981492822712e-06, -0.0003617991573428915, -6.936591314404269e-05, 6.708213978051472e-05, -9.3571010052962e-06, -5.445981486231411e-06, 0.000629352097818437]"
1556684061286966277,,65,,1556684060,982357482,"""map""",,,,-1.77808153629,0.186309725046,-0.0297618769109,,-0.000721714135221,0.00859278955321,-0.0460141273435,0.998903582441,"[0.13049422392561252, 0.020348408781245074, -0.002869523502038687, -0.0001451527106053315, -0.0016919023443442798, -0.00011031491695276834, 0.02034840876590498, 0.18408724054991688, 0.004649332232849385, 0.0020105737919085967, 0.0001005444992318188, 0.00011936290768930023, -0.0028695235117001043, 0.004649332236236537, 0.08721338262978728, 0.0014770238380079897, 0.0017040578969414264, 3.611541464865155e-05, -0.0001451527113887005, 0.002010573790754599, 0.001477023837517636, 0.0007071798257560921, 9.037091909772234e-06, -3.4206426140151527e-06, -0.0016919023438864453, 0.00010054449632203099, 0.001704057894957112, 9.037091316613019e-06, 0.0006063934999054962, -1.0467842373263894e-05, -0.00011031491716434773, 0.00011936291134976711, 3.611541570658715e-05, -3.420642057469702e-06, -1.0467842303126862e-05, 0.000590646757004108]"
1556684061862136265,,66,,1556684061,582336141,"""map""",,,,-1.12240827084,0.108851857483,-0.0118052745238,,-0.00315446208689,0.00823393892921,-0.0293465878227,0.999530421214,"[0.13216260574616498, 0.02224071575032623, -0.0027725128838707457, -0.00023071713101533204, 0.0017614912303791407, -0.00025028406409079206, 0.022240715758513236, 0.1894412701519385, 0.003158863978078212, 0.0019224126120931534, -9.455435709415304e-05, 0.0003285166568364811, -0.002772512913105943, 0.0031588639585856727, 0.08580776512178664, 0.0012699630019425614, -0.0016804234025548264, 5.102779438215954e-05, -0.0002307171315225263, 0.0019224126107642246, 0.0012699630036567726, 0.0006902100882567546, -3.329388305737304e-05, -1.4710537329991638e-05, 0.0017614912323962839, -9.455435644415507e-05, -0.0016804234003991348, -3.329388304333212e-05, 0.0005964466890105226, 7.516695774764503e-06, -0.0002502840682913413, 0.0003285166542511652, 5.1027793719327796e-05, -1.4710537285836166e-05, 7.51669542564388e-06, 0.0005884509039308986]"
1556684062372186392,,67,,1556684062,82517598,"""map""",,,,-0.836838781834,0.0792620331049,-0.00796106178313,,-0.00170009594099,0.00728054693414,-0.0219631417197,0.99973082645,"[0.13401449086181574, 0.022136639372026267, -0.0024809287286384433, -0.00021455810554744183, 0.0017852598163717634, -0.0003133780887408365, 0.022136639366431392, 0.19309554697744413, 0.0024319844579782646, 0.0019091322382928043, -0.00012027505300543932, 0.00041381747989054736, -0.0024809287244149194, 0.002431984436659148, 0.08562466285648451, 0.001144850158758894, -0.0014950085730376342, 2.0426494604780398e-05, -0.0002145581059857431, 0.0019091322376286945, 0.0011448501616840264, 0.0006745141184893434, -4.2869090386925415e-05, -7.69682850578399e-06, 0.001785259815748651, -0.00012027505098096344, -0.0014950085745750743, -4.286909030430713e-05, 0.0005923126928498422, 8.817456641786237e-06, -0.0003133780915770838, 0.0004138174809862676, 2.0426495365230007e-05, -7.696828797496249e-06, 8.817456547163309e-06, 0.0005764835712157739]"
1556684062946857985,,68,,1556684062,682449230,"""map""",,,,-0.622497737408,0.059359960258,-0.0115260798484,,-0.000513170563458,0.00645717817666,-0.0161683611321,0.999848302124,"[0.13446112149647288, 0.02393769713206658, -0.0016120592650250166, -0.0001295268367187022, 0.0018411205353383228, -0.00024796491893546444, 0.02393769711074665, 0.19625592679396156, 0.002784513200565116, 0.0018674640470942316, -2.081430725932112e-05, 0.0005359639624843499, -0.0016120592697455543, 0.0027845132017641785, 0.08692595446193896, 0.0011543554247967621, -0.001282595517320559, 4.798936712623246e-05, -0.0001295268396561177, 0.001867464046290713, 0.0011543554238144411, 0.0006621877843775964, -1.2986800846479085e-05, -1.156327318008337e-05, 0.0018411205362760764, -2.0814305783310698e-05, -0.0012825955198197741, -1.2986800546709348e-05, 0.0006248548223872039, 3.883126761633301e-06, -0.0002479649188163249, 0.0005359639567647421, 4.7989365014756e-05, -1.1563273325850335e-05, 3.883127147264723e-06, 0.0005928243015828505]"
1556684063558459529,,69,,1556684063,282500623,"""map""",,,,-0.479131519794,0.0560076795518,-0.00541313830763,,0.000105868218499,0.00610041210534,-0.0125357589639,0.999902809904,"[0.13342898685795498, 0.022624891906936253, -0.002237093306588025, -0.00014582637800045797, -0.0018865083540022976, -0.00020401709173181309, 0.022624891985436213, 0.19268921102029254, 0.0032551030390824093, 0.0018264643049254058, -7.103542835677089e-06, 0.0005317400964879359, -0.0022370933180558493, 0.0032551030333818295, 0.08422396104614237, 0.001254308746445664, 0.0013174150467377423, 4.505571617035602e-05, -0.00014582637767357562, 0.0018264643059595174, 0.001254308746231665, 0.0006575590263196578, 1.945406384108559e-06, -1.3255649506452454e-05, -0.0018865083553899636, -7.103542090533894e-06, 0.0013174150476245698, 1.9454061289387266e-06, 0.000630055087603237, -1.225408108308361e-05, -0.00020401708873010898, 0.0005317401002881271, 4.505571415074223e-05, -1.325565010029274e-05, -1.2254080848834499e-05, 0.0005957207288870793]"
1556684064165233116,,70,,1556684063,882281232,"""map""",,,,-0.433130592108,0.0488781705499,0.00165122980252,,0.000630706153688,0.00585153457288,-0.0115844435601,0.999915581359,"[0.13265734216961647, 0.02428033805564035, -0.002711587447207823, -0.00011496679368657071, -0.0017911791590027692, -0.0001890772438172244, 0.024280338051607644, 0.19341611600347383, 0.002423791798851661, 0.001839372548809149, -2.5772877581652343e-05, 0.00026642479557322635, -0.0027115874304771506, 0.002423791830838203, 0.08384535098986522, 0.0012290428824209036, 0.0014378620268214778, 4.99346188296048e-05, -0.00011496679366343349, 0.0018393725515435382, 0.001229042882896982, 0.0006388259286520729, 5.439262330859412e-06, -6.435184078541431e-06, -0.0017911791591772848, -2.5772877808947722e-05, 0.0014378620276090553, 5.439262231445505e-06, 0.0005841989743810632, -6.070949610529945e-06, -0.00018907724390146714, 0.0002664247932006002, 4.993462109803029e-05, -6.435183501996913e-06, -6.070949283204816e-06, 0.0005744691192418788]"
