rosbagTimestamp,header,seq,stamp,secs,nsecs,frame_id,pose,pose,position,x,y,z,orientation,x,y,z,w,covariance
1554544178621095887,,29,,1554544178,456238483,"""map""",,,,25.297952652,-0.883816361427,-0.15370798111,,0.030117701041,-0.00282507698621,-0.00646927770814,0.999521431552,"[0.3244051162006758, 0.006413619341368701, -0.012866874206970845, -0.0007124440632265794, -0.0028004233699619055, -0.001009308341888201, 0.00641361952818597, 0.3028906189557295, -0.003790929822122514, 0.0027730294172130664, 0.00024050060580113348, -0.009243997393608885, -0.012866874114714178, -0.003790929877650036, 0.14911150575809162, -0.0013307661725821334, 0.009617359651813205, -0.0007606753881265867, -0.0007124440588648786, 0.0027730294223598856, -0.001330766158942284, 0.0008487742092058721, 0.0001949290602981934, 1.2559331648674275e-05, -0.0028004233598176707, 0.00024050060242152411, 0.009617359661530583, 0.00019492905836636672, 0.0015499218405020817, -4.7158318416453725e-05, -0.0010093083489379519, -0.00924399737757574, -0.000760675386921178, 1.2559332578214986e-05, -4.715831800563236e-05, 0.0015222908719330984]"
1554544179143849147,,30,,1554544178,964904386,"""map""",,,,26.1793384552,-0.904651522636,-0.147789344192,,0.037492693602,-0.00123585052489,-0.00664436814819,0.999274042492,"[0.3486841902595081, 0.0009540233357026002, -0.01702543238830686, -0.0005113808315177105, -0.0029745962755748953, -0.000939197640634005, 0.0009540231525717113, 0.32231711704479843, -0.0018870034312290773, 0.002882131750773923, 2.3277466049469278e-05, -0.010412332815436869, -0.017025432359631366, -0.0018870034444063853, 0.15289409822714561, -0.0011981058689764833, 0.01007208241486954, -0.0009830484195764903, -0.0005113808335817254, 0.002882131757046569, -0.001198105866445239, 0.0008992660568557249, 0.0001954485307062529, 1.7687895169356845e-05, -0.0029745962723016963, 2.327746648432979e-05, 0.010072082414895876, 0.0001954485301638214, 0.0016169776490022425, -2.0519059354853627e-05, -0.0009391975975514775, -0.010412332799225548, -0.000983048424282688, 1.768789619463052e-05, -2.0519059665438786e-05, 0.0018103171090268113]"
1554544179703031998,,31,,1554544179,551576733,"""map""",,,,27.4244174957,-0.930224239826,-0.164172112942,,0.0329476545375,0.000777630360449,-0.00772802766567,0.999426901032,"[0.37790998538542386, 0.010439029883864616, -0.012294298414586935, -0.00042643998732076944, -0.002566420159577933, -0.0017897123779454071, 0.010439029922298506, 0.34058854053943866, -0.004174491919608042, 0.003168186043459608, -5.284375530118618e-05, -0.01053487648374777, -0.01229429841325646, -0.004174491889201122, 0.1475205241143849, -0.0016842906059717573, 0.009171476307402332, -0.0006539707241325374, -0.0004264399970825249, 0.003168186051437084, -0.0016842905824891313, 0.0008683418648675101, 0.00014060196324247655, -9.605094848966689e-06, -0.0025664201615685817, -5.284374879107421e-05, 0.009171476317829642, 0.00014060196026463245, 0.0014804123409552583, 9.873835746920843e-06, -0.0017897123830511274, -0.010534876466215672, -0.0006539707146035941, -9.605093876064092e-06, 9.873837413371705e-06, 0.0017967047457881995]"
1554544180230865307,,32,,1554544180,56889998,"""map""",,,,28.5317897797,-0.941959679127,-0.178974539042,,0.0346845164141,0.00166865047492,-0.00915568282233,0.999354981478,"[0.43808377480167987, 0.012905124383854792, -0.01469086379834253, -0.0005397245710827943, -0.0028864041909918404, -0.0029389892556912493, 0.012905124667442818, 0.3683244950287181, -0.007659730893469604, 0.003514212816034034, -5.067397879524067e-05, -0.011804795487696074, -0.014690863849541496, -0.0076597308269969995, 0.15186752163107994, -0.0013391663894685253, 0.009564678491774998, -0.0007465718102942651, -0.0005397245696244243, 0.0035142128240790442, -0.0013391663884226134, 0.0009003148326219779, 0.00019746305790494122, -2.0121659467557103e-05, -0.0028864041919520974, -5.0673966100251984e-05, 0.009564678496864753, 0.0001974630577413693, 0.0015509588489203278, -6.365330073733515e-06, -0.0029389892539040488, -0.011804795479077425, -0.0007465718041979728, -2.012165865567117e-05, -6.365328951903413e-06, 0.001890339050967265]"
1554544180785729506,,33,,1554544180,648859207,"""map""",,,,29.8606739044,-1.01682734489,-0.203272804618,,0.0349644482911,0.00805098123559,-0.00928627818593,0.999312984387,"[0.4420113180134577, 0.005796685881873553, -0.015576138775367484, -0.0005343521471186086, -0.0028096977646442246, -0.0021385490014594406, 0.005796685830992868, 0.3797535086892311, -0.0130359549593948, 0.0039054605763334787, -0.00037606240462942836, -0.011963531026702013, -0.015576138577911007, -0.013035955113437046, 0.15168317600777587, -0.0008072935926308324, 0.010337682189426385, -0.00045374902879185674, -0.0005343521560674809, 0.0039054605789793084, -0.000807293570027158, 0.0008777798542778782, 0.00025334432938986116, -4.832430827128044e-05, -0.0028096977453388825, -0.000376062421751696, 0.01033768220041286, 0.000253344325745338, 0.001721035353268722, 1.4410415967909498e-05, -0.0021385490085074196, -0.01196353102672859, -0.0004537490292095023, -4.8324308223246825e-05, 1.4410415858474282e-05, 0.0018624955179032813]"
1554544181421638653,,34,,1554544181,248986174,"""map""",,,,31.1923713684,-1.03642690182,-0.219782501459,,0.0326329462552,0.00304823239363,-0.0105273802808,0.999407316941,"[0.42391364610791626, -0.0010424919863224285, -0.015470539553437837, -0.00044668447304079814, -0.002767647539795889, -0.001055102521127849, -0.0010424919936212734, 0.3400011676853537, -0.014429268772270255, 0.003398930120562268, -0.00044087404093942764, -0.00976850082741658, -0.015470539494929339, -0.014429268814202444, 0.15089034070020807, -0.0013632415900008616, 0.009455648578874667, -0.00035828223830955896, -0.0004466844676818993, 0.0033989301132471023, -0.0013632415643959127, 0.0008634471510619511, 0.0002015802642369297, -6.128554526656202e-06, -0.0027676475241609007, -0.00044087405958986387, 0.00945564859479688, 0.00020158025989120112, 0.0015708663627983712, 2.9633281893577914e-05, -0.001055102522310803, -0.00976850082757442, -0.00035828223482223736, -6.128555242488586e-06, 2.9633281543547992e-05, 0.001665675711506692]"
1554544181906900759,,35,,1554544181,754423754,"""map""",,,,32.3020935059,-1.07878232002,-0.236734002829,,0.0330770962751,0.00216138302295,-0.0114435671679,0.999384966604,"[0.419492573180735, -0.006047936353979868, -0.013762519140783493, -0.00042846259324425266, -0.002635367926469625, -0.0001597361152345859, -0.006047936190785966, 0.3416405377428972, -0.011138563048057536, 0.003334879040335041, -0.0002996531466710708, -0.010660353579778166, -0.013762519008154846, -0.011138562912886524, 0.15730529656882852, -0.0018590649020168177, 0.009807223294237343, -0.0007252178966254231, -0.00042846259254686076, 0.0033348790339210355, -0.0018590649162403654, 0.0008900500716078645, 0.0001491167369581311, -6.68258975400932e-06, -0.0026353679150496823, -0.00029965313489398984, 0.009807223293249368, 0.0001491167385258405, 0.0015650502713327053, -1.008548774506022e-05, -0.00015973613655633571, -0.010660353571055001, -0.0007252178866370008, -6.6825900682637205e-06, -1.008548655042483e-05, 0.0018233062132637131]"
1554544182547147572,,36,,1554544182,346507054,"""map""",,,,33.6766052246,-1.12585866451,-0.249382138252,,0.0337155854032,-0.00307807598112,-0.0134921141542,0.999335664377,"[0.41313738151963586, 0.0010377188660128881, -0.018450075426299294, -0.00040420015552500267, -0.0029896420611767796, -0.0005967757486793916, 0.0010377188618155397, 0.35271695794524643, -0.014746245919991827, 0.003668024932818838, -0.00043463009216023336, -0.010035670801220456, -0.018450075542625354, -0.014746245916107225, 0.16794024752664757, -0.0015270434731666268, 0.01069371814913285, -0.000392593060413709, -0.00040420015317945486, 0.003668024935898835, -0.0015270434920008902, 0.0008926009507475745, 0.00019247172942641632, -1.2130334995942096e-05, -0.002989642073175652, -0.00043463008809617736, 0.010693718135500224, 0.00019247173211381856, 0.0016655594542405382, 2.6088088812843796e-05, -0.0005967757576597073, -0.010035670807730821, -0.00039259307220526846, -1.2130334837619715e-05, 2.6088087250952026e-05, 0.0017071782417844375]"
1554544183130158715,,37,,1554544182,943319082,"""map""",,,,35.1036529541,-1.19616293907,-0.24464289844,,0.0327986368875,-0.00156720397482,-0.0143725421986,0.999357411932,"[0.4094941574744279, -0.0008136616407434794, -0.02750797730052855, -0.00036426337300923155, -0.0037782174510100747, -0.0007650831731532042, -0.0008136612581955959, 0.3650838280019787, -0.01579465527899956, 0.0035439041668363755, -0.0007100539269214265, -0.012021054832388928, -0.027507977307647438, -0.01579465507120092, 0.1546313491475269, -0.0005481404007267488, 0.010552189852230706, -0.00048808986596392224, -0.0003642633716589151, 0.0035439041692837655, -0.000548140396331165, 0.0009035734044171074, 0.00022951387903856347, -1.6623164645433392e-05, -0.0037782174507695705, -0.0007100539069115206, 0.010552189856182923, 0.0002295138783079965, 0.0016864810086281781, 1.4479207391215315e-06, -0.0007650831674001513, -0.012021054830065346, -0.00048808985188129097, -1.662316420316348e-05, 1.4479223133165416e-06, 0.0019341763380707519]"
1554544183613724497,,38,,1554544183,436457174,"""map""",,,,36.4013748169,-1.23434340954,-0.265772730112,,0.0370186793863,-0.00313242651446,-0.00629655844076,0.999289826705,"[0.3571799601962719, -0.007586761068804991, -0.020888885511744695, -0.0005442189171447, -0.0034677096185081508, -0.00033415684767557454, -0.007586761066050552, 0.32662774928948923, -0.01942174328938647, 0.0032819625479122093, -0.0009764918491232442, -0.010214241706827496, -0.020888885660737443, -0.019421743497578872, 0.1600837356754271, -0.0009836058922436841, 0.010988673330790186, -0.00045159440628381094, -0.0005442189171312718, 0.003281962543015544, -0.000983605897275553, 0.0008581915043037806, 0.0002011864106700953, -4.757660135168651e-06, -0.003467709634344113, -0.0009764918728047169, 0.010988673322120762, 0.00020118641118743052, 0.0017489295520865663, 1.9170166287667666e-06, -0.0003341568380326857, -0.010214241699570784, -0.00045159443984661224, -4.7576611600777796e-06, 1.9170120781867615e-06, 0.0017389532355375284]"
1554544184133783245,,39,,1554544183,941108161,"""map""",,,,37.7327041626,-1.2341376543,-0.255619168282,,0.0349992849982,0.00220338330645,0.00789908799632,0.99935369915,"[0.33276139461213516, -0.001262372952582206, -0.012732722244577102, -0.0004918161184857138, -0.002944567197894127, -0.0008144481906417541, -0.0012623731165962296, 0.30560341742321084, -0.017853500006126857, 0.003274480565893592, -0.0007497310282973385, -0.009512917697978, -0.012732722285236362, -0.017853499855960405, 0.16854362517231836, -0.0019896162215504664, 0.01120597016485873, -0.0004779406141982475, -0.0004918161200002656, 0.0032744805734843275, -0.001989616240033604, 0.0008326132585748431, 0.00012140556257060412, -9.454842330179358e-06, -0.0029445672002927793, -0.0007497310065962058, 0.01120597015370269, 0.0001214055649410359, 0.001727651426213981, 3.3117479659281425e-05, -0.000814448186638703, -0.009512917700478863, -0.000477940614756606, -9.454840899181533e-06, 3.3117480698264635e-05, 0.0017581459547189422]"
1554544184638917693,,40,,1554544184,446506642,"""map""",,,,39.1239204407,-1.22822499275,-0.266748666763,,0.0392682244903,0.00299692129711,0.0134535106211,0.999133643731,"[0.3415823420891652, -0.0005429866008190303, -0.008873177584212744, -0.0006627337636946945, -0.0029210375684975954, -0.0011505844614820375, -0.0005429866295345486, 0.30787854537615217, -0.02586322380052442, 0.0034370548814444913, -0.001260402668734273, -0.00970226063766124, -0.008873177481381774, -0.025863223704198718, 0.1654435363167502, -0.0019835673014594094, 0.01127899747388112, -0.0003934540366351258, -0.0006627337695307718, 0.0034370548749622517, -0.001983567300913685, 0.000839027198320012, 0.00011237959572466586, -2.4043239165927995e-05, -0.002921037559525792, -0.0012604026595778419, 0.011278997478504593, 0.00011237959543052726, 0.0017903832366141406, 2.6061532812530838e-05, -0.0011505844728860071, -0.00970226065085096, -0.0003934540283506727, -2.4043240228042408e-05, 2.6061533418992245e-05, 0.001746667138724669]"
1554544185153048843,,41,,1554544184,935954997,"""map""",,,,40.5051879883,-1.20169770718,-0.29142794013,,0.0342956201065,-0.000190942174144,0.010080570714,0.999360871218,"[0.3340922007565854, -0.003582116519214847, -0.00634131180699778, -0.0007555943177693283, -0.0025222303864410917, -0.0008575813335348998, -0.0035821162923528544, 0.30495887750350315, -0.027588063944181278, 0.003505875135780231, -0.001226755753459267, -0.009303397993388396, -0.006341311757799488, -0.027588063960200575, 0.15614080007249825, -0.002287909942437879, 0.010183128163480994, -0.00015759375291394178, -0.0007555943168512901, 0.0035058751364262313, -0.0022879099444200195, 0.0008771627130373304, 9.370795080909749e-05, -1.786932001023668e-05, -0.0025222303814372913, -0.0012267557500459621, 0.010183128162631451, 9.370795080146474e-05, 0.0015798701412608482, 2.9554185421126907e-05, -0.0008575813402915123, -0.009303398005425293, -0.0001575937470235326, -1.7869320027616815e-05, 2.9554186449239605e-05, 0.0016278985011309265]"
1554544185678771082,,42,,1554544185,441270502,"""map""",,,,41.8914833069,-1.21873855591,-0.307208389044,,0.0313731540215,-0.0023382198692,-0.000855849224919,0.999504622307,"[0.34411519718072575, -0.00771594329976831, -0.011597321253677812, -0.000583093476598946, -0.0030008393763370574, -0.00018113923474661028, -0.007715943380455086, 0.30263216239173824, -0.027254067597428325, 0.0034381234685445725, -0.001202123816402663, -0.009155608705102293, -0.01159732125654364, -0.027254067569230475, 0.15846889768394634, -0.0017609561023028482, 0.010876406006361443, -0.0002654691888038525, -0.0005830934720800527, 0.003438123469069609, -0.0017609561082495735, 0.0008523132063913307, 0.00014480643127834445, -8.88640782756029e-06, -0.0030008393737969673, -0.0012021238146304879, 0.01087640601261034, 0.00014480643220529248, 0.0017363778802106287, 1.6442761459870124e-06, -0.00018113923098802168, -0.00915560871303775, -0.00026546919503257944, -8.88640832086286e-06, 1.6442751218418418e-06, 0.001662528669340641]"
1554544186194623134,,43,,1554544186,32960104,"""map""",,,,43.4393234253,-1.28141617775,-0.292411029339,,0.0321830206456,0.00342493669568,-0.0084704766955,0.999440237675,"[0.33363992909390616, -0.012271899475976282, -0.017797564827842845, -0.0004279371652001766, -0.0035734293314925777, -0.0006704725483008178, -0.012271899524196704, 0.3012247586807315, -0.02259979779674728, 0.003285141170608588, -0.0012995650929094194, -0.010035423134569106, -0.017797564842748345, -0.02259979788213929, 0.16611990066092702, -0.0018472503676845765, 0.012015511211804272, -0.0003094713001063781, -0.0004279371649094212, 0.0032851411597581833, -0.001847250364394029, 0.0008902017815678853, 9.26845862110333e-05, -3.1065414737849215e-05, -0.003573429331098224, -0.0012995651101669697, 0.012015511210770899, 9.268458526712062e-05, 0.0019246067393218725, 2.439898419784177e-05, -0.0006704725471068686, -0.010035423128625822, -0.00030947131069196523, -3.10654161347811e-05, 2.4398982093934777e-05, 0.001886087569217383]"
1554544186824985431,,44,,1554544186,629564282,"""map""",,,,44.8577575684,-1.31199979782,-0.299718856812,,0.0338877483368,0.00347617530311,-0.00919654097118,0.999377280299,"[0.34371195368171464, -0.0015922080604641926, -0.008497426405041822, -0.0005908538920786134, -0.0034535348979905737, -0.0014693544641645332, -0.0015922083466490457, 0.29911264347843497, -0.02125527955509175, 0.0032362631017631717, -0.0014486690386168338, -0.009565245820200213, -0.00849742632259653, -0.021255279511665073, 0.1689995074353498, -0.0016063950343433607, 0.012572608736880915, -0.00027698171409939966, -0.0005908538991028984, 0.00323626309876445, -0.001606395033071134, 0.0008778150817087619, 9.233513745301515e-05, -3.748553661089617e-05, -0.0034535348953221414, -0.0014486690437433647, 0.01257260873470557, 9.233513737028176e-05, 0.002096798431668271, 2.5088978716604808e-05, -0.001469354431389471, -0.00956524581998343, -0.0002769817106747253, -3.7485536765339226e-05, 2.5088978245269506e-05, 0.0018737909167925427]"
1554544187379947533,,45,,1554544187,235374326,"""map""",,,,46.148109436,-1.37262022495,-0.325830280781,,0.0338912434156,0.00285194093499,-0.00865181700752,0.999384027253,"[0.37417991590072974, -4.1949721261101314e-05, -0.012211791696878695, -0.00043754391480400504, -0.0036650278561093587, -0.0027728604710393536, -4.1949358915092716e-05, 0.3249426251223057, -0.018299420639290773, 0.0035943382087517514, -0.0011180179401289317, -0.009073938455957449, -0.012211791624950546, -0.018299420661420644, 0.17101520553209218, -0.0022274811199013617, 0.011938836032239433, -0.00039688406719583274, -0.00043754391961336043, 0.0035943382057043605, -0.0022274810959564775, 0.0009154183885546149, 3.288796254421225e-05, -2.251234776359382e-05, -0.0036650278583734426, -0.0011180179408996633, 0.011938836044253559, 3.2887958964670956e-05, 0.002008652602765121, 4.3850045857587566e-05, -0.002772860500317659, -0.00907393842215276, -0.0003968840464732629, -2.251234712818644e-05, 4.3850049059769724e-05, 0.001941084077166176]"
1554544187989621571,,46,,1554544187,827423741,"""map""",,,,47.4008522034,-1.35645127296,-0.331832081079,,0.0322814808642,0.00338759631841,0.0073493371581,0.99944607473,"[0.3875719689481036, -0.0016420042361565443, -0.01975893650364465, -8.970951831555346e-05, -0.0036847302726740515, -0.0036010888198296934, -0.0016420046961756073, 0.3468856740064678, -0.019253704024118367, 0.003948481442464784, -0.001186326625943526, -0.010123768939891621, -0.019758936478216367, -0.01925370403207174, 0.16930934491364247, -0.0019998796760704743, 0.01176712893190648, -0.0005042360959474682, -8.970952051752838e-05, 0.003948481444552466, -0.0019998796772784048, 0.0010347506632095442, 2.339319515652276e-05, -6.483548916277822e-05, -0.0036847302700119865, -0.0011863266282822742, 0.011767128936313754, 2.339319518269425e-05, 0.0019409755448197325, 4.307367180151229e-06, -0.0036010887733928325, -0.010123768929906771, -0.0005042361136974203, -6.483548866540398e-05, 4.307365049139933e-06, 0.0020090398322461563]"
1554544188480406746,,47,,1554544188,327366292,"""map""",,,,48.3380737305,-1.34529411793,-0.325932979584,,0.0339235397915,0.000110167704004,0.0210060411503,0.999203640523,"[0.3929276535055242, 0.01753591831240533, -0.020345791450751632, -0.0008254259991072624, -0.004226437078494698, -0.00596940933918666, 0.017535918261721562, 0.4006881545303494, -0.01637997083459883, 0.0040242195130765135, -0.0014517865675365879, -0.015583269295981625, -0.020345791459803624, -0.016379970820950704, 0.2099667492967771, 0.001137450749146585, 0.015840202216370083, -0.0004680282742125336, -0.0008254259949453736, 0.004024219534107603, 0.0011374507610592357, 0.0014065089213038879, 0.00040569842345168866, -4.5471392333495145e-05, -0.004226437083410991, -0.0014517865622949299, 0.01584020222390746, 0.0004056984219662739, 0.0023171011514519107, 5.738786754299089e-05, -0.0059694093348339194, -0.015583269309344028, -0.0004680282402529862, -4.5471389066530883e-05, 5.7387872060785134e-05, 0.002729280188212564]"
1554544189095352583,,48,,1554544188,933024406,"""map""",,,,49.5507698059,-1.29939568043,-0.346578210592,,0.0290318394847,-0.00289424401359,0.0219830597054,0.999332547959,"[0.36383524258950495, 0.012273742618014151, -0.014943624184910088, -0.0006500168981596835, -0.003785516232206005, -0.003873725770052523, 0.0122737424514656, 0.36168224003812716, -0.012048715709661676, 0.0033900379776226515, -0.0007868030936738411, -0.013419194916922578, -0.014943624126229342, -0.012048715745464986, 0.18505532628733318, -0.001750058661984704, 0.013502545880446692, -0.0005264722442075655, -0.000650016911880959, 0.003390037964527046, -0.0017500586386485649, 0.0010528902839485915, 0.00014498790152593527, 2.346488985454548e-06, -0.0037855162327331392, -0.0007868031172467721, 0.01350254589076929, 0.00014498789772433051, 0.0021159895440305315, 3.9527486691536284e-05, -0.003873725748885726, -0.013419194929225841, -0.0005264722522432265, 2.3464878943676193e-06, 3.952748433286162e-05, 0.0024366633016741435]"
1554544189609785599,,49,,1554544189,422473412,"""map""",,,,50.6160812378,-1.26279449463,-0.350510835648,,0.0331305061457,-0.00195491918323,0.0199748740347,0.999249497061,"[0.34932508922345684, 0.0049774641521681895, -0.017684039465621165, -0.00016860074009795314, -0.003940641688016008, -0.002081154330305872, 0.004977464362419601, 0.3430816460791874, -0.019438765166795057, 0.003707752468657463, -0.0013911622501433774, -0.010831439571027649, -0.017684039449934054, -0.01943876531858253, 0.17077645594412036, -0.0027733336312367554, 0.012468197149783948, -0.0004094591414303592, -0.00016860073953404493, 0.0037077524701245443, -0.002773333625045959, 0.0008878050153022444, -3.7744012389747746e-05, -4.432504901459435e-05, -0.0039406416853980985, -0.001391162265739017, 0.012468197148808865, -3.774401303735328e-05, 0.0020542511371716247, 2.2664741008860356e-05, -0.0020811543304247314, -0.010831439564850725, -0.00040945915506476207, -4.432504908958358e-05, 2.2664739046390687e-05, 0.002074273554369671]"
1554544190206881626,,50,,1554544190,23646652,"""map""",,,,51.8521194458,-1.25509524345,-0.342983305454,,0.0355287423966,0.00274052569136,0.0180407344531,0.999202052283,"[0.3590196576311088, 0.008826800942458864, -0.011573312772232712, -0.00028591282200345725, -0.003743782493516438, -0.00026111710967106287, 0.008826800626361925, 0.3307122642131922, -0.02151972643240842, 0.003849853440172264, -0.0014319625957472458, -0.009527513556388206, -0.011573312690263108, -0.021519726295944668, 0.18028268294535682, -0.0031417384868787563, 0.0132725200065882, -0.000365653999089437, -0.0002859128306517699, 0.0038498534395266996, -0.0031417384910936764, 0.0009823749195392866, -1.7205033553086104e-06, -5.975043165250785e-05, -0.003743782491184556, -0.0014319625789569917, 0.013272520006713457, -1.720502961094466e-06, 0.002202268073377052, 3.946889650956384e-05, -0.0002611170994418912, -0.009527513548020995, -0.00036565397851838076, -5.975043130052916e-05, 3.946889941229727e-05, 0.001957576703165021]"
1554544190813791743,,51,,1554544190,617491607,"""map""",,,,53.0863838196,-1.23146224022,-0.346500277519,,0.0356983648808,0.000152605059961,0.0166318226852,0.999224190477,"[0.36803770186575235, 0.014115694947071851, -0.017378544147817584, 2.9497020368256207e-05, -0.004104586818320324, -0.0015843632713049688, 0.014115694771963058, 0.334257688149225, -0.019954876345881705, 0.0035834147123561975, -0.0016320543430445892, -0.010288530088145264, -0.017378544051891053, -0.019954876509364314, 0.16950061338834851, -0.0027288806550488025, 0.012778913555926065, -0.0003664368773911127, 2.949700588461995e-05, 0.0035834147095192277, -0.002728880639513849, 0.0009405026650832962, -2.647969866687032e-05, -2.83850784077652e-05, -0.00410458681852053, -0.0016320543715081445, 0.01277891356679248, -2.6479701033236478e-05, 0.0021857248421980886, 8.066627912984443e-05, -0.001584363254309111, -0.010288530087885621, -0.0003664368975496915, -2.8385078983892628e-05, 8.06662758468405e-05, 0.002172245764228625]"
1554544191401771683,,52,,1554544191,217840603,"""map""",,,,54.3202438354,-1.21158790588,-0.351225435734,,0.0297990441422,-0.00263206978327,0.0143741180149,0.999449064064,"[0.3835651692264051, 0.026606573489035605, -0.028580852632515027, 0.00039404830829115555, -0.005219506824417752, -0.003097415928525931, 0.026606573569050586, 0.3499653076330654, -0.018701360906777653, 0.0037182566644516687, -0.001622881160264644, -0.010172784265751656, -0.028580852610924672, -0.01870136090974015, 0.1612974808806273, -0.0024269547205150815, 0.013237753226586463, -0.0003857788288830236, 0.000394048306750704, 0.0037182566647553862, -0.0024269547113925003, 0.001003832443660066, -4.172694309469421e-05, -2.7690140067111563e-05, -0.0052195068232404876, -0.0016228811546449048, 0.013237753231408448, -4.172694456671372e-05, 0.0024581815487786495, 3.6307583563221085e-05, -0.0030974159382832975, -0.010172784253563334, -0.00038577881249038794, -2.7690140631830838e-05, 3.63075863050841e-05, 0.002189292247407334]"
1554544191898237036,,53,,1554544191,723115472,"""map""",,,,55.4789009094,-1.19133722782,-0.359320282936,,0.0329987658792,-0.00140510587529,0.0134055059329,0.999364501965,"[0.42216652345692207, 0.02338686607285209, -0.015990475363741607, 0.00013632729653605726, -0.004093079184757816, -0.0030644694383272367, 0.0233868659400874, 0.3647713279026235, -0.01727885929487841, 0.003956217043558718, -0.0014861278895710196, -0.00994806837243121, -0.015990475509839574, -0.017278859407285598, 0.15613511536397853, -0.002409849729553824, 0.011785268433966047, -0.0005604418986522177, 0.00013632730443866587, 0.0039562170403528735, -0.0024098497377307983, 0.0010110192548608292, -4.807618377461243e-05, -3.788740833503106e-05, -0.004093079193268, -0.0014861279078181926, 0.011785268423034052, -4.807618228552609e-05, 0.002167655467640899, 1.0048991558810851e-05, -0.0030644694479394687, -0.009948068397938804, -0.0005604419253647532, -3.788740894762463e-05, 1.0048986845572081e-05, 0.0021688876157328753]"
1554544192484525254,,54,,1554544192,315092808,"""map""",,,,56.9733695984,-1.15346610546,-0.363304048777,,0.0356644108338,0.00281619212024,0.0102212221424,0.999307586443,"[0.4694587052343047, 0.04922770052987657, -0.01929606461010538, 6.754685684658118e-05, -0.004753589648157028, -0.007862599189146629, 0.04922770016700861, 0.37191323043323155, -0.008208063373941739, 0.003920709667361235, -0.0010698508226633509, -0.012934403705276917, -0.019296064499628063, -0.008208063376648415, 0.1630993279036717, 5.112279505973788e-05, 0.013377507511046492, -0.0009083831150861412, 6.754684068649773e-05, 0.003920709669164204, 5.112279224487364e-05, 0.0013307640756736311, 0.0002067063995086025, -5.6163619213738773e-05, -0.004753589641982411, -0.0010698508297702193, 0.013377507516809932, 0.0002067064001600704, 0.0024838575338185617, 2.7569249491751548e-05, -0.007862599162487351, -0.012934403702466794, -0.0009083830994498397, -5.61636189545188e-05, 2.756925103563893e-05, 0.002825511306541332]"
1554544193074249571,,55,,1554544192,912966484,"""map""",,,,58.4662055969,-1.15359091759,-0.370773762465,,0.0339291474721,0.000545718912039,0.0085304503687,0.999387702646,"[0.4644900353460299, 0.055167707959240975, -0.013865424961169982, -0.0002273654281250308, -0.004063914845214758, -0.009429181222847909, 0.055167708063934146, 0.3792467794209844, -0.013974657207500655, 0.003564050200855914, -0.0015542893563601052, -0.014113407464326152, -0.013865424866350678, -0.013974657100156374, 0.17562568672360768, 0.0003828364529875388, 0.014860716430457669, -0.0007017493821564413, -0.00022736542636333292, 0.0035640501997024434, 0.0003828364590502837, 0.001203817229600546, 0.000343318909495594, -5.225692620172954e-05, -0.004063914835204708, -0.0015542893403060626, 0.014860716430558047, 0.000343318908145198, 0.0025966472196218126, 3.183546796900818e-05, -0.009429181198265031, -0.014113407420974607, -0.0007017493759358549, -5.2256925715288986e-05, 3.183546924896835e-05, 0.0029197553097212955]"
1554544193578652201,,56,,1554544193,420583527,"""map""",,,,59.5615272522,-1.15717577934,-0.378366917372,,0.0317413040909,-0.000555786066494,0.00756339819321,0.999467350246,"[0.42673651566415893, 0.01951370541023194, -0.00921193421038014, 0.00015555936708497542, -0.0029825277828902075, -0.004898775662899905, 0.019513705094121415, 0.38406694457095364, -0.005280079352381185, 0.0036181088057326387, -0.0007448335962817907, -0.011806727479045953, -0.009211934356232526, -0.005280079370705138, 0.15966665604150812, -0.0016749836815017182, 0.01182001630167085, -0.0011077774651519904, 0.00015555935702545065, 0.0036181088059856377, -0.0016749836935886992, 0.001069945009845049, 9.349182371130698e-05, -3.71669687948067e-05, -0.002982527801003485, -0.000744833593064082, 0.011820016296986077, 9.349182545748168e-05, 0.002027650272631723, -3.751878033514864e-05, -0.004898775647705027, -0.011806727498238245, -0.0011077774676916331, -3.716696991136627e-05, -3.751878091729325e-05, 0.002334594027612105]"
1554544194152651300,,57,,1554544194,7259692,"""map""",,,,60.8206100464,-1.20413219929,-0.399112224579,,0.0350925681891,-0.00119998510393,0.00452950572311,0.999373090455,"[0.4158234626221804, 0.008912491393457138, -0.005292217114877679, -2.1345543141303227e-05, -0.002643360520195367, -0.0033080066569146508, 0.008912491391229727, 0.37668897522715533, -0.00978760556016974, 0.003589770207160306, -0.0014183432875477227, -0.00905372453498349, -0.0052922171240306895, -0.009787605425261218, 0.1560239320804561, -0.0025244860407217956, 0.011265409316487354, -0.0006066287657489655, -2.1345541261747156e-05, 0.0035897702150606866, -0.0025244860504462503, 0.0009748967686686692, -4.731896860616031e-05, -4.4720802081045494e-05, -0.002643360515755878, -0.0014183432581403581, 0.011265409314925421, -4.731896713386549e-05, 0.0019656351915660975, 1.684758436889571e-06, -0.003308006636229431, -0.009053724526621156, -0.0006066287423864637, -4.472080255487855e-05, 1.684762485255497e-06, 0.002022601681092797]"
1554544194676283501,,58,,1554544194,512693037,"""map""",,,,61.8044395447,-1.22601640224,-0.392840713263,,0.0369783790137,0.00154881799792,0.00391525302332,0.999307191289,"[0.41320214642709435, 0.0009726346824707904, -0.008981292957898089, 0.0002956508511282394, -0.0026460026303850373, -0.0017734241725466046, 0.0009726344154498157, 0.39434498017349945, -0.0005095551787366811, 0.003282563163024143, -0.0010527615748541256, -0.009331000148232682, -0.0089812930647234, -0.0005095553106368041, 0.15495045603542695, -0.0024682141163488375, 0.010703844709006106, -0.0007708848312912725, 0.00029565084894936556, 0.0032825631659367167, -0.002468214108244963, 0.0010046864104786282, -5.2885553757784994e-05, -2.5156162428973135e-05, -0.0026460026412033133, -0.0010527615862161387, 0.010703844713002949, -5.288555481648214e-05, 0.0017915164881377142, 2.5359921110622993e-05, -0.0017734241472330146, -0.009331000135879423, -0.0007708848546231005, -2.5156161501123338e-05, 2.5359917917304143e-05, 0.0019389800761597461]"
1554544195276446773,,59,,1554544195,104519044,"""map""",,,,63.0570259094,-1.20268523693,-0.415526121855,,0.0385223774865,0.00062761904523,0.00561994370502,0.999241742607,"[0.4161451847572314, 0.008483364036902438, -0.015196809165084271, 0.0005278541925279228, -0.003185093345823329, -0.002583172629484253, 0.00848336400583212, 0.38882581113282144, -0.0075002094931405335, 0.003611880506009165, -0.001823259079358214, -0.009471307540740647, -0.01519680895532577, -0.0075002094419918675, 0.1508828611087922, -0.0024168253185761486, 0.011050687479888154, -0.000684677232938212, 0.0005278541879340008, 0.003611880508294667, -0.0024168253214206215, 0.0010524558882383617, -0.0001309762120048914, -3.4831553022643e-05, -0.0031850933235194772, -0.00182325906313575, 0.011050687482631045, -0.0001309762113723708, 0.0018979907487699282, 1.8863411280594853e-05, -0.002583172626198832, -0.009471307545271677, -0.0006846772114919021, -3.4831553407506594e-05, 1.886341452865878e-05, 0.001977825656951897]"
1554544195810925642,,60,,1554544195,604819571,"""map""",,,,64.2044067383,-1.18044936657,-0.42979323864,,0.0359709522392,-0.0023260216096,0.0184627392975,0.999179570591,"[0.4542763753133546, -0.000554851660468457, -0.02172980415766106, 0.0006246590984929684, -0.0032350276034763164, -0.003009260886523075, -0.0005548517714092391, 0.4079628555394664, -0.004810731500213236, 0.00321951067843274, -0.0017379081524809773, -0.009619784033841637, -0.021729804306617983, -0.0048107316335715385, 0.15372613309740019, -0.002442616221087214, 0.011055923874110633, -0.0006163300574960986, 0.0006246590951466999, 0.003219510674674477, -0.002442616205566587, 0.0009191084762790752, -0.00017977500250004487, -2.5060111995312012e-05, -0.003235027613119754, -0.0017379081618637223, 0.011055923879060769, -0.00017977500497795497, 0.0017766498424373843, 1.922877192403407e-05, -0.003009260885816125, -0.009619784039445963, -0.0006163300529785024, -2.506011340903629e-05, 1.922877325391412e-05, 0.0018246772060743648]"
1554544196370521830,,61,,1554544196,210188555,"""map""",,,,65.6619644165,-1.11702680588,-0.422041505575,,0.0363675744971,-0.00257092967711,0.0270879098752,0.998967979286,"[0.454204611996421, 0.030876875029207572, -0.015212676352499042, 0.0003879769934334397, -0.002747608102575661, -0.004169573723992554, 0.03087687523610963, 0.43188539555490607, 0.004412391389346386, 0.002979673445888994, -0.0012945849800900758, -0.010896115456037428, -0.015212676138983543, 0.004412391362536836, 0.1559453368367026, -0.002154742294891418, 0.010942257549896322, -0.000847001350973013, 0.00038797699146492925, 0.002979673452707722, -0.002154742307535194, 0.0009218095987623592, -0.0001764424960532869, -1.205488560563638e-05, -0.0027476080783270327, -0.0012945849818808497, 0.010942257548287392, -0.0001764424943885079, 0.0016859862582443166, -3.908566949734394e-06, -0.00416957375112337, -0.010896115451624321, -0.0008470013583895534, -1.2054884900134955e-05, -3.908567943168875e-06, 0.0018054516326271584]"
1554544196966345894,,62,,1554544196,802179889,"""map""",,,,67.1795349121,-1.04975819588,-0.402489572763,,0.0357260110593,-0.00191063763463,0.0275913261727,0.99897883848,"[0.4510962113073853, 0.025765352347293564, -0.011516816942834853, 0.000359876584827076, -0.002325836171233452, -0.004372814855360543, 0.025765352188771004, 0.42687813114133694, 0.00648895267538895, 0.0027244122579601236, -0.0010452501202323123, -0.010198179587852444, -0.011516816901504164, 0.0064889526704766795, 0.14651696723273078, -0.0014195920832741587, 0.010558790918839852, -0.0009312723826138766, 0.0003598765801772517, 0.002724412254008178, -0.0014195920737920219, 0.0008357705416602078, -0.0001256627913124709, -2.5177873316933624e-05, -0.0023258361696612676, -0.0010452501201817946, 0.010558790922254865, -0.00012566279247054588, 0.001657230531291157, -2.2476331442238214e-05, -0.004372814835205847, -0.010198179625893079, -0.0009312723702609227, -2.5177874491272584e-05, -2.2476329805227697e-05, 0.0017746963109092054]"
1554544197476648727,,63,,1554544197,302796521,"""map""",,,,68.3212738037,-0.993430018425,-0.401903152466,,0.0350714014867,-0.00447045604608,0.0257040021521,0.999044214892,"[0.46529975035836335, 0.027932667095307465, -0.011611060270723705, 0.00044825387373584596, -0.002258555043963384, -0.003771189759964124, 0.027932667274804597, 0.43724391526645057, 0.008605339287838748, 0.002519851733073587, -0.0011096726848346147, -0.010557036355646322, -0.011611060275514076, 0.008605339142599013, 0.146451804905659, -0.0013729443666816554, 0.010388207062159557, -0.000901819506514001, 0.000448253872631258, 0.002519851733752319, -0.0013729443578454233, 0.0007804921065497625, -0.00012413812263565061, -1.0422031985672189e-05, -0.0022585550472272093, -0.0011096727013356262, 0.010388207059812265, -0.00012413812386342368, 0.0016488773865066834, -1.606397565133614e-05, -0.003771189751397998, -0.01055703633582818, -0.0009018195095832054, -1.0422032664690483e-05, -1.6063976340925498e-05, 0.0016681242917047107]"
1554544197977611210,,64,,1554544197,796804820,"""map""",,,,69.3327560425,-0.983839511871,-0.393387436867,,0.0364378288329,-0.00190680387261,0.0240628820676,0.999044371504,"[0.476657011397578, 0.04376788534060928, -0.010110367679686634, 0.0005175161839475449, -0.0024590195410649353, -0.0054884669265322684, 0.04376788528764377, 0.46364004098986666, 0.0070415704920452574, 0.0026740530923944268, -0.001589011106994337, -0.011347858862057083, -0.010110367682652707, 0.007041570364448726, 0.15174035461393168, -0.0014767418076894467, 0.010999352200943883, -0.0007080237099057913, 0.0005175161914673183, 0.002674053103487482, -0.0014767418076622896, 0.0008244824607072994, -0.0001767372307953442, -1.9384558515535032e-05, -0.002459019534289718, -0.0015890111160454833, 0.01099935219936376, -0.00017673723070321304, 0.0017456447278057156, 3.331722016683528e-05, -0.005488466933376293, -0.011347858843812212, -0.0007080237187734403, -1.9384557051355336e-05, 3.3317219208000025e-05, 0.0018138371605665195]"
1554544198551037210,,65,,1554544198,394121374,"""map""",,,,70.4238433838,-0.947964906693,-0.394378066063,,0.0362155232143,-0.0019665257172,0.0226006154298,0.999086461918,"[0.4952986974298303, 0.04246345163056333, -0.010347197475429745, 0.00024370595209222476, -0.002278887482031423, -0.006135485390456769, 0.0424634521466942, 0.4772049595846187, 0.015383323909284949, 0.0026033928266055335, -0.0009884347853019143, -0.010951721869622053, -0.010347197332803572, 0.015383323976592339, 0.15702515686862453, -0.0008035583592805108, 0.01095140108284907, -0.0009198107722996705, 0.00024370595473847102, 0.0026033928294310815, -0.0008035583525807003, 0.000853132807575126, -0.00015251294154022544, -2.6826059446966765e-06, -0.0022788874676672433, -0.0009884347746338693, 0.010951401085049755, -0.00015251294266378348, 0.0016798637998994997, -5.7951937879137084e-06, -0.006135485440736414, -0.010951721896145907, -0.0009198107516339344, -2.6826055853948776e-06, -5.795189886014745e-06, 0.001789622963572414]"
1554544199046289684,,66,,1554544198,901844660,"""map""",,,,71.1732711792,-0.931168675423,-0.394692242146,,0.0366035983817,-0.000234337413536,0.0215849090305,0.999096693409,"[0.5397846826945226, 0.06988969484949875, -0.010751716313347431, 0.0004410157005577071, -0.0025657039598791865, -0.0077020073314448285, 0.06988969420229142, 0.5192860250746633, 0.02000310527097285, 0.0026435900460008628, -0.001094514349921605, -0.012881370788820972, -0.010751716427486936, 0.020003105331466865, 0.17049440795530224, -0.00030689630153208145, 0.01206872703910357, -0.0011744120847402173, 0.0004410156971890389, 0.0026435900485741993, -0.0003068962946896979, 0.0008442023771154911, -8.321188661762048e-05, -2.5512467450262006e-05, -0.002565703968116041, -0.0010945143422021173, 0.01206872704032809, -8.321188782778452e-05, 0.0017609497017664786, -2.3057222486126442e-05, -0.007702007280781126, -0.012881370789796315, -0.0011744120848237952, -2.551246783906574e-05, -2.3057222198838626e-05, 0.0019193658992830366]"
1554544199645586395,,67,,1554544199,488589002,"""map""",,,,71.9601821899,-0.928613841534,-0.396544188261,,0.0361129978433,0.000790278861375,0.0209094876525,0.999128632586,"[0.5707203274632984, 0.05135829852225007, -0.011545332299784026, 0.00020741134631387686, -0.002634634337119445, -0.006634407853047698, 0.0513582988122535, 0.5477379953525897, 0.021862469155902665, 0.00272539172847974, -0.0011088942949451076, -0.014301417963244998, -0.0115453324426621, 0.021862469324648373, 0.1807160953657443, -5.268942097956512e-05, 0.013408776009501655, -0.001250661495031241, 0.00020741134672498624, 0.0027253917185276985, -5.2689413561633015e-05, 0.0008521623931943275, -5.5158832377744675e-05, -2.2415284114856226e-05, -0.00263463435822638, -0.00110889427219951, 0.013408776007501432, -5.5158833417511764e-05, 0.001958354847864008, -3.0233766220916112e-05, -0.006634407867629656, -0.01430141794136928, -0.00125066149428269, -2.24152851357029e-05, -3.0233765864342322e-05, 0.001969090399566729]"
1554544200151235926,,68,,1554544199,994063090,"""map""",,,,72.5578994751,-0.902676701546,-0.399638563395,,0.0352203274493,0.00215440563763,0.0194381062764,0.999188190497,"[0.5487569558922161, 0.04053603128343386, -0.011886514101442461, 0.00010259204903704071, -0.0025069922645945433, -0.005267301272423384, 0.040536031668050025, 0.5326357089091092, 0.027151487655668046, 0.0023364380611154496, -0.000297083091267119, -0.013404999694826078, -0.01188651400480104, 0.02715148793480852, 0.1710183090525675, -3.790253563307174e-05, 0.012304572675420154, -0.0014364122713837438, 0.00010259205303151524, 0.002336438053075154, -3.790252415251334e-05, 0.0007527854584733143, -2.4278545461154377e-05, -7.323231274302517e-06, -0.002506992252028419, -0.00029708305297495414, 0.012304572671847466, -2.4278547368939745e-05, 0.0017944219826667466, -6.176859489616393e-05, -0.005267301261563162, -0.013404999673167415, -0.0014364122442643596, -7.3232316546285834e-06, -6.176859126455164e-05, 0.0017866180971731936]"
1554544200734506668,,69,,1554544200,586059775,"""map""",,,,73.2591323853,-0.875922560692,-0.40830591321,,0.0360235666266,0.00721801229603,0.0191500601445,0.999141361738,"[0.5375724626579762, 0.03906465188087461, -0.008880803215588718, 6.537444893083275e-05, -0.0019518011604555295, -0.00469900698283011, 0.03906465194177162, 0.5236940306371328, 0.023841519649810246, 0.0025009327162193273, -0.0005394561796399561, -0.013381937671489293, -0.008880803187970953, 0.023841519657346127, 0.16418375198572183, 8.006287434606493e-05, 0.011250649244397065, -0.0012084508588041832, 6.537445488163961e-05, 0.002500932711286112, 8.006286967509532e-05, 0.0007853046041232724, -7.747190853783146e-07, -2.6502292832661228e-05, -0.0019518011582015421, -0.0005394561752159062, 0.011250649241742466, -7.747183791564209e-07, 0.0016003102710586124, -3.3826391076510955e-05, -0.004699006979803718, -0.013381937677643093, -0.0012084508604582522, -2.650229332547625e-05, -3.3826390651798695e-05, 0.0017562169256377846]"
1554544201334621744,,70,,1554544201,186186965,"""map""",,,,74.0644302368,-0.857556819916,-0.447295933962,,0.0380605730734,0.0212347663347,0.0182127036812,0.998883771782,"[0.5435802930413297, 0.05207567331890949, -0.00801687116027274, 0.00041938721417476507, -0.0022512293670725794, -0.0069284989910533236, 0.052075673081298596, 0.5281210633219003, 0.029662030742969053, 0.0032060774310626846, -0.0002811438241615537, -0.014358032616518688, -0.0080168712014303, 0.029662030593456727, 0.17129783108138114, 0.0007636999516327182, 0.013168788340922, -0.001390588003062286, 0.00041938720215347643, 0.0032060774272627862, 0.0007636999823223828, 0.00088757718672747, 2.3552227575712365e-05, -9.674157229557741e-05, -0.0022512293705008297, -0.0002811438471235865, 0.013168788332014814, 2.355222265066006e-05, 0.001939007241957063, -2.2395307470375998e-05, -0.006928498982434619, -0.01435803262447186, -0.0013905880034143264, -9.674157216728501e-05, -2.2395307685217103e-05, 0.0019603848085058212]"
1554544201825721127,,71,,1554544201,691670583,"""map""",,,,74.780380249,-0.834663152695,-0.4735044837,,0.036721351212,0.0323508412975,0.0166361741926,0.998663209945,"[0.527431705282447, 0.05526203273168384, -0.005521586435128444, 0.00035067552599993913, -0.002171716697841813, -0.0066333100332501265, 0.05526203301262937, 0.5103474947244001, 0.028454987611799074, 0.003151751227418378, -0.00018228664333002712, -0.013720354799759662, -0.0055215864399059365, 0.028454987723200955, 0.15753067167885615, 0.0009529052279323197, 0.012072041394014814, -0.0013704267712358466, 0.0003506755236013184, 0.003151751231539579, 0.0009529052273179366, 0.0008850758622489932, 7.222201429029193e-05, -0.00011867400822310161, -0.0021717167027054595, -0.00018228662430504186, 0.012072041397926777, 7.222201451194579e-05, 0.0018410072139323844, -4.366858686246408e-05, -0.006633310037037739, -0.013720354810277117, -0.0013704267599830603, -0.00011867400748039252, -4.3668584873997245e-05, 0.001972103779517475]"
1554544202425379758,,72,,1554544202,283507562,"""map""",,,,75.5964355469,-0.807397305965,-0.486785054207,,0.0426445018452,0.0199551535711,0.0170927364053,0.998744743009,"[0.529258661091201, 0.053971574895128126, -0.008182196942583478, 0.0003974207957116056, -0.0022934411916306005, -0.0066210350090969315, 0.053971574033602664, 0.5234914292004261, 0.025103573460065358, 0.0030078070255170845, -0.000762204689311753, -0.01448287041696606, -0.008182197225870828, 0.025103573350077592, 0.16375716715532335, 0.0011464414688409372, 0.012074774672079968, -0.0014340731638047266, 0.00039742078637636924, 0.0030078070412659494, 0.0011464414810246177, 0.0008646572025530117, 5.4662394777881554e-05, -8.820423842734445e-05, -0.00229344122170814, -0.0007622047024485045, 0.012074774672865357, 5.4662393046928086e-05, 0.001810876822876151, -2.5395494059549995e-05, -0.006621034944595228, -0.014482870437809634, -0.0014340731829873444, -8.820423714504302e-05, -2.5395496333840293e-05, 0.0019383092757467866]"
1554544202928943076,,73,,1554544202,783809040,"""map""",,,,76.2891311646,-0.774017333984,-0.507580697536,,0.042157331694,0.00535764267458,0.0187670954993,0.998920334672,"[0.5577342464206915, 0.05466206869584113, -0.014989490135008741, -0.00016736531121662544, -0.002195955021717026, -0.00701709359434221, 0.05466206818404733, 0.543048508193891, 0.028167431142035595, 0.002702590384905335, -0.0002677774053783835, -0.01518275132602621, -0.01498949012533516, 0.0281674311023571, 0.17167368145808592, 0.002147085309833203, 0.011596632607230397, -0.0015174220342839713, -0.00016736531651880506, 0.002702590380310869, 0.0021470853125144956, 0.0008926603865979369, 0.00018841404936233912, -6.292994843651023e-06, -0.002195955014742107, -0.00026777740770126903, 0.01159663260871909, 0.00018841404907068667, 0.0016408738805805709, -5.203696240713813e-05, -0.00701709358681887, -0.015182751344165371, -0.001517422020932258, -6.292995353392256e-06, -5.203696016955847e-05, 0.0019774311243856745]"
1554544203536618612,,74,,1554544203,388786411,"""map""",,,,77.0573577881,-0.777174890041,-0.516063094139,,0.0432261138684,-0.000113857110864,0.0187303102443,0.998889716513,"[0.5153409774939625, 0.05311934849719056, -0.01613981925332094, -0.00036304992397112113, -0.002179624336868789, -0.0061964894279874574, 0.053119348598927536, 0.5356467909562941, 0.02426426565402405, 0.0022618688365979864, -0.0005645904840501357, -0.01534552866268699, -0.016139819167402703, 0.024264266065970624, 0.18237359326647806, 0.0016235285841448507, 0.012219277763287842, -0.0015922651046830886, -0.00036304992196842836, 0.0022618688451135544, 0.001623528554202102, 0.000833212039979493, 0.0001560182954446406, 6.319118460718114e-06, -0.0021796243221976624, -0.0005645904221938755, 0.012219277770152862, 0.00015601829975068132, 0.0016731801771911329, -7.532395358017225e-05, -0.0061964894383277095, -0.015345528696206479, -0.0015922650757015304, 6.319118387411869e-06, -7.532394892573894e-05, 0.0018632972118717299]"
1554544204145327778,,75,,1554544203,975488057,"""map""",,,,77.8428115845,-0.733131170273,-0.530934751034,,0.0431488384822,-0.00110040307534,0.0184514278373,0.998897652711,"[0.5114266786137803, 0.0700956736593449, -0.017331448319087103, -0.00047953692367819716, -0.00240063873145451, -0.006296791966884639, 0.07009567364438908, 0.5497628830478344, 0.02917452870913685, 0.0018287827440026637, -0.0003092651335557644, -0.016125059246153938, -0.017331448332698472, 0.02917452835043433, 0.19121227400484964, 0.0017798330410028083, 0.013181241344790472, -0.0016758981225994478, -0.0004795369296137712, 0.0018287827397104905, 0.0017798330892796496, 0.0008311989403773323, 0.0001646182835984478, 4.3558639270560247e-05, -0.0024006387333098005, -0.0003092651751603384, 0.013181241336631096, 0.0001646182770925023, 0.0017817185451125405, -6.834435239099072e-05, -0.006296791955226486, -0.01612505923730302, -0.0016758981418592582, 4.35586385076961e-05, -6.834435489954558e-05, 0.0019261100776230573]"
1554544204752873936,,76,,1554544204,579128458,"""map""",,,,78.7670440674,-0.707074582577,-0.521299958229,,0.0437915307186,0.00124568184663,0.0171161017341,0.99889329676,"[0.5030130186499812, 0.06344104628468811, -0.019041624583925644, -0.0003856264775932171, -0.0026602200422367623, -0.006510292699348016, 0.06344104608338727, 0.5275624516287635, 0.02773347729328762, 0.0018241781947852486, -0.00022001594712416311, -0.015620921074791906, -0.01904162467355469, 0.02773347735247236, 0.18890491022936506, 0.0016397908379424534, 0.01298529611154773, -0.001630337932931884, -0.00038562648024849524, 0.0018241781799096628, 0.0016397908208088021, 0.0008151365760022961, 0.0001719040011252461, 3.513898414005229e-05, -0.0026602200517585064, -0.00022001592548140435, 0.012985296115427342, 0.0001719040032518299, 0.0017506266790432783, -4.805623753023305e-05, -0.006510292716999982, -0.015620921122597282, -0.0016303379218712045, 3.513898294953057e-05, -4.8056235082382856e-05, 0.0019048415162964281]"
1554544205328355609,,77,,1554544205,183644402,"""map""",,,,79.8678665161,-0.695048034191,-0.524462401867,,0.0405980817797,-0.00172788835989,0.0157719415439,0.999049584428,"[0.4854455374887221, 0.07236431533926177, -0.017996889719038404, -0.0005640263526363768, -0.002573958781077802, -0.007218587599893772, 0.07236431524537516, 0.5244987416756003, 0.028914231029451547, 0.002033242284129727, 7.224843016453624e-05, -0.01580533255016906, -0.017996889709775907, 0.028914230927413666, 0.19811880877249494, 0.0023536014654331064, 0.013637639052089636, -0.001635008167228975, -0.0005640263551393079, 0.002033242283890114, 0.0023536014475069003, 0.0009159926598313767, 0.00021067362163106168, 3.915625438123283e-05, -0.0025739587790940977, 7.224842957029542e-05, 0.0136376390530029, 0.00021067362402911086, 0.001789754435033844, -6.50115587913858e-05, -0.007218587591474525, -0.015805332546486358, -0.0016350081743699918, 3.915625489652166e-05, -6.501155882260515e-05, 0.0018628276703454613]"
1554544205908170646,,78,,1554544205,770343887,"""map""",,,,80.9228744507,-0.7177734375,-0.540235996246,,0.0551138374811,0.00443052830316,0.0104798027887,0.998415250038,"[0.49845558805306045, 0.06002919540382802, -0.01881856852978604, -0.0009139656708497267, -0.0027876165070751355, -0.00653347121322959, 0.06002919547644236, 0.5062701299106471, 0.027730817132213044, 0.001943974625137476, -0.00012471336207649247, -0.016050459789584925, -0.018818568576140164, 0.02773081733853861, 0.20371944117242277, 0.004163919431085916, 0.014946363309793691, -0.0021435793034701514, -0.0009139656695393471, 0.0019439746437688856, 0.004163919429821242, 0.0009805340335908624, 0.00042878746181117125, 1.0158001440442714e-05, -0.002787616505318156, -0.00012471333163975994, 0.01494636330593982, 0.00042878746187406924, 0.0019769328973196394, -8.806448835945715e-05, -0.006533471221935061, -0.016050459781583176, -0.0021435792742684513, 1.0158003197018547e-05, -8.806448417422811e-05, 0.002039126540576317]"
1554544206424212237,,79,,1554544206,275744826,"""map""",,,,81.8075027466,-0.691855669022,-0.515435874462,,0.0492267437972,0.00774859510845,0.00906999958256,0.998716387356,"[0.4769774970706305, 0.07025129457543593, -0.01557420618771051, -0.0008046692269445209, -0.002614460532210404, -0.007516299231529939, 0.07025129514699344, 0.5210348128299778, 0.03261632755294171, 0.0022243352529298685, 0.0005418618179272675, -0.01678844513776151, -0.015574205923217723, 0.03261632750578537, 0.2002851082150343, 0.004177706266399825, 0.01522162500256976, -0.0022552764698113167, -0.0008046692179373153, 0.002224335245758426, 0.004177706252252858, 0.001014349007384623, 0.0004793522137142315, 1.998849292327912e-06, -0.0026144605047459077, 0.0005418618182069855, 0.015221625009683508, 0.00047935221613651705, 0.0020948151023991554, -0.00011616682405860689, -0.0075162992570944895, -0.01678844513402324, -0.0022552764769836952, 1.9988482482083688e-06, -0.0001161668247604062, 0.002092540199061697]"
1554544207053868478,,80,,1554544206,867643422,"""map""",,,,82.7764205933,-0.686603248119,-0.582804262638,,0.0634642134586,0.019590917704,0.011496055354,0.997725582477,"[0.4859606203121167, 0.06964374281157652, -0.01741659493582622, -0.001071534402340864, -0.0032492629564095836, -0.007447929421368051, 0.06964374254581024, 0.5192677736135314, 0.032523208967201137, 0.002563979182097203, 0.00023305863066444758, -0.017051304219045965, -0.01741659511622815, 0.03252320856611124, 0.19273523667913087, 0.004921305246164259, 0.015425571728036153, -0.002614883309869139, -0.0010715344150965776, 0.002563979165228853, 0.0049213052518733095, 0.0011002914302325388, 0.0005947138623808924, -7.100606364799828e-05, -0.0032492629863092853, 0.00023305857723974455, 0.015425571720170785, 0.000594713861363421, 0.0021976859045993767, -0.00011026282943091952, -0.0074479294090421, -0.017051304165517454, -0.0026148833401759618, -7.100606471111012e-05, -0.00011026283499560473, 0.00227126004141145]"
1554544207629886646,,81,,1554544207,468102610,"""map""",,,,83.7799682617,-0.657200574875,-0.598611533642,,0.0514837126517,0.0136016223381,0.00919896866452,0.998538834768,"[0.46002329763412897, 0.06522116034804379, -0.015970118989260845, -0.0009270281771377172, -0.003108294556071587, -0.007717411786032836, 0.06522116010500424, 0.5012554422595662, 0.03113724970907595, 0.002724765728809889, 0.000872722949113735, -0.016293926270472374, -0.01597011899053646, 0.031137249881836523, 0.1858614967074558, 0.0035805434405675484, 0.014850394215083688, -0.0023461062876274463, -0.0009270281957987246, 0.0027247657232823256, 0.0035805434563793916, 0.0009781369524428062, 0.0004890312379023765, -3.526677180530433e-05, -0.003108294557307617, 0.0008727229775679136, 0.014850394224519156, 0.0004890312359621476, 0.002223075918217147, -0.0001379080724178438, -0.007717411778524559, -0.01629392626848561, -0.0023461062833553367, -3.5266772727108284e-05, -0.00013790807100642476, 0.0022272883622906996]"
1554544208272440322,,82,,1554544208,71050654,"""map""",,,,84.824508667,-0.663851976395,-0.628701984882,,0.0526736839496,0.00493047773982,0.0101933714293,0.998547587049,"[0.4299731805736102, 0.045442723232300995, -0.0191837633040113, -0.0011083612946387275, -0.0030198722366461357, -0.005231247918185475, 0.045442723083249315, 0.43854634713482005, 0.017730854850722063, 0.0022482712391051485, 0.00039313665532122023, -0.014002314862707532, -0.019183763348304853, 0.017730854783831494, 0.18254813008246973, 0.002502219229030044, 0.013432136735061823, -0.0019287884616309536, -0.0011083612935492847, 0.0022482712404262952, 0.0025022192180850626, 0.0008930933676977249, 0.00037875370358538435, 2.096320915668772e-05, -0.0030198722465294998, 0.0003931366445377724, 0.013432136730501273, 0.0003787537048770324, 0.001963500432724966, -0.0001152541671022394, -0.005231247930164505, -0.014002314871878732, -0.001928788462257582, 2.096320965759059e-05, -0.00011525416786884094, 0.001930394726634195]"
1554544208828780148,,83,,1554544208,662808094,"""map""",,,,85.8603973389,-0.64990156889,-0.661036968231,,0.0440247245361,0.0136285126989,0.00759602052301,0.998908594714,"[0.4376245783195992, 0.05316642842905809, -0.014893765922865298, -0.0010376993313978384, -0.0026247396923809313, -0.006407715792956993, 0.053166428839254265, 0.43790577111505835, 0.016948924431374843, 0.0023614389770869565, 0.0006494770624449579, -0.015007054870288285, -0.014893765915563888, 0.01694892461802184, 0.16719387003984718, 0.0018308714839622689, 0.012374315714926235, -0.001780232291099415, -0.0010376993255643892, 0.0023614389789746106, 0.0018308714828861134, 0.0008965774640662693, 0.0003623111658400861, 9.988030684725853e-06, -0.0026247396866025834, 0.0006494770887080873, 0.01237431571494368, 0.0003623111659229293, 0.0018748408200830668, -0.00010504587797120704, -0.006407715799999668, -0.015007054878873655, -0.0017802322688860366, 9.988031056058661e-06, -0.00010504587434675301, 0.0022363117331472135]"
1554544209426673384,,84,,1554544209,263047114,"""map""",,,,86.880317688,-0.692837297916,-0.698119878769,,0.0449525963948,0.0146339244976,-0.012045303057,0.998809284365,"[0.4190395083379935, 0.05005124799908325, -0.01878199164498115, -0.0011501348974976761, -0.003132973726687676, -0.005353710251046878, 0.0500512477655048, 0.4167563690486051, 0.009356374463167623, 0.0024595055639111698, 0.00027689731596526753, -0.013670415145908549, -0.018781991812266065, 0.00935637424198878, 0.16741954746569385, 0.00187229138984659, 0.012761194261058772, -0.001490467867542817, -0.0011501349034288633, 0.002459505555402688, 0.0018722914093585905, 0.0009401576949183125, 0.0004002490895305946, 9.028634574394199e-06, -0.0031329737417004266, 0.0002768972789558585, 0.012761194267951631, 0.0004002490864728324, 0.0020186949723656382, -9.714085275537069e-05, -0.005353710218094672, -0.013670415151435692, -0.0014904678988825544, 9.028633981811463e-06, -9.714085749392744e-05, 0.002061933366073663]"
1554544209940803465,,85,,1554544209,768182283,"""map""",,,,87.7142333984,-0.738381624222,-0.715302765369,,0.0431772270389,0.00722840352556,-0.0249662546716,0.998729270963,"[0.3877356442586518, 0.052377624011799455, -0.01704517101412927, -0.0014896537611614556, -0.003314937685183537, -0.005560151285010136, 0.05237762427403898, 0.4070968524729862, 0.0075582804511407885, 0.00264327134337979, 0.000490920334777888, -0.013594439489130057, -0.017045171021370396, 0.007558280272762694, 0.16766027243099116, 0.0018631942168646832, 0.012548329372798477, -0.0012436394205787766, -0.0014896537661855, 0.002643271335528602, 0.0018631942038264103, 0.0009939755187959344, 0.0004242624734721278, 4.0929138818843045e-05, -0.0033149376895634107, 0.0004909203125216577, 0.012548329372475561, 0.0004242624754380656, 0.0020185075649442885, -8.079130995823558e-05, -0.005560151310483523, -0.013594439483926139, -0.0012436394532981487, 4.092913698713179e-05, -8.079131424267528e-05, 0.0019766619991593132]"
1554544210515758191,,86,,1554544210,354798414,"""map""",,,,88.7112960815,-0.857102274895,-0.735926687717,,0.0394793315428,-0.00530727563545,-0.0478086872542,0.998061894791,"[0.34074480455969586, 0.04297911458404881, -0.01811141406606007, -0.0014106181614268788, -0.003375263348384363, -0.004636390093956118, 0.042979114579306005, 0.3727033078379667, 0.007898445917451391, 0.0021805338139622016, 0.0005684721837815987, -0.012842910747352724, -0.018111413913648778, 0.007898446089800417, 0.1742842598311372, 0.001671219724482563, 0.012110213973616234, -0.0011449080031062807, -0.0014106181575875855, 0.002180533838857155, 0.00167121973674595, 0.000986745433041994, 0.0003978138551845497, 0.0001007481085584717, -0.0033752633357779604, 0.0005684722089722778, 0.012110213978088794, 0.0003978138536997898, 0.0018708860664137222, -5.725426976310119e-05, -0.0046363900887015684, -0.012842910744831024, -0.0011449079735895943, 0.00010074811142664801, -5.725426584418005e-05, 0.0018423195913646923]"
1554544211020425659,,87,,1554544210,860264837,"""map""",,,,89.5977706909,-0.98632478714,-0.733396708965,,0.0381104979101,-0.00518295062131,-0.0551991705869,0.99773431949,"[0.33695210568489437, 0.04024591619597475, -0.01657407942433249, -0.0015249549248603576, -0.003230493194679459, -0.0045340497647138435, 0.04024591623268725, 0.3839420260760154, 0.007852123722507778, 0.0023613669664139217, 0.0008036106262739104, -0.012947097462206103, -0.01657407936676989, 0.00785212346524586, 0.1874157148383074, 0.0016883151061167485, 0.013352570811657275, -0.0012731521617101527, -0.001524954919226914, 0.0023613669493354915, 0.001688315080243936, 0.0009669191821977113, 0.00041473724848633793, 8.393543288643995e-05, -0.003230493191887904, 0.0008036105922006506, 0.013352570815905298, 0.00041473725265666597, 0.0019904253283280376, -9.259548314310359e-05, -0.004534049766869644, -0.012947097498416762, -0.0012731521981781885, 8.393543088885631e-05, -9.259548803638334e-05, 0.00183799022165318]"
